시설명,박물관미술관구분,소재지도로명주소,소재지지번주소,위도,경도,운영기관전화번호,운영기관명,운영홈페이지,편의시설정보,평일관람시작시각,평일관람종료시각,공휴일관람시작시각,공휴일관람종료시각,휴관정보,어른관람료,청소년관람료,어린이관람료,관람료기타정보,박물관미술관소개,교통안내정보,관리기관전화번호,관리기관명,데이터기준일자,제공기관코드,제공기관명,
필암서원 유물전시관,공립,전라남도 장성군 황룡면 필암서원로 187,전라남도 장성군 황룡면 필암리 400-9,35.309853,126.751153,061-390-7224,장성군,http://tour.jangseong.go.kr/home/tour/spectacle/view/view_06/view_06_03,주차장+화장실,09:00,18:00,09:00,18:00,"1월1일, 설날, 추석",500,300,0,"단체(30인) 이상 50 할인, 12세 이하 어린이 및 65세 이상 노인 무료관람","유물전시관은 필암서원과 하서 김인후 관련 유물을 보관하고, 정보를 제공하기 위해 1999년 설립하였으며, 2008년 시설을 증축하여 새롭게 개관하였다. 현재 3,744점의 유물을 소장하고 있으며, 관람객들에게 다양한 볼거리를 제공하고 있다.",농어촌 버스 46 : 장성터미널 탑승 →원필암정류장 하차,061-390-7224,전라남도 장성군청,2018-08-07,4980000,전라남도 장성군,
원주역사박물관,공립,강원도 원주시 봉산로 134,강원도 원주시 봉산동 836-1,37.343743,127.962031,033-737-4371,원주시,http://whm.wonju.go.kr/,뮤지엄샵,09:00,18:00,09:00,18:00,매주 월요일,0,0,0,,"원주시의 대표적인 박물관으로 ,원주의 고대시대부터 일제강점기까지 원주의 역사를 한눈에 살필수 있으며, 역사강좌, 영화상영, 체혐교실 등 다양한 문화프로그램도 운영중이다.","시내버스 5, 5-1, 5-2, 80, 81, 81-1, 82",033-737-4371,강원도 원주시청,2018-05-25,4190000,강원도 원주시,
뮤지엄산미술관,사립,강원도 원주시 지정면 오크밸리2길 260,강원도 원주시 지정면 월송리 산129-5,37.4188689,127.823167,033-730-9000,(재)한솔문화재단,www.museumsan.org,"카페테리아, 아트샵, 수유실",10:30,18:00,10:30,18:00,매주 월요일,15000,10000,10000,"제임스터렐관 13,000원","세계적인 건축가 안도 다다오가 설계한 아름다운 미술관이다. 2015년 한국관광공사가 진행한 <한국인이 꼭 가봐야할 한국관광100선>에 선정되기도 한 곳이다.  근현대 한국을 대표하는 이중섭, 박수근, 백남준 등 여러 주요작가들의 회화 및 판화드로잉 작품을 집중소장하고 있다. (매년 2회의 기획전시 개최)",셔틀버스(시외버스터미널 정류장),033-730-9000,강원도 원주시청,2018-05-25,4190000,강원도 원주시,
오랜미래신화미술관,사립,강원도 원주시 문막읍 취병로 711,강원도 원주시 문막읍 취병리 835,37.3415286,127.7868199,033-746-5256,오랜미래신화미술관,,,10:00,17:00,10:00,17:00,매주 월요일,0,0,0,0,한국 최초의 신화 테마 미술관,,033-746-5256,강원도 원주시청,2018-05-25,4190000,강원도 원주시,
연세대학교 원주박물관,대학,강원도 원주시 흥업면 연세대길 1,강원도 원주시 흥업면 매지리 1875,37.2813415,127.899493,033-760-2731,연세대학교,web.yonsei.ac.kr,"식당, 매점",09:00,16:30,00:00,00:00,"토, 일, 공휴일",0,0,0,,,"시내버스 30, 31, 34",033-760-2731,강원도 원주시청,2018-05-25,4190000,강원도 원주시,
뮤지엄산박물관,사립,강원도 원주시 지정면 오크밸리2길 260,강원도 원주시 지정면 월송리 산129-5,37.2813415,127.8237167,033-730-9000,(재)한솔문화재단,www.museumsan.org,"카페테리아, 아트샵, 수유실",10:30,18:00,10:30,18:00,매주 월요일,15000,10000,10000,,"세계적인 건축가 안도 다다오가 설계한 박물관이다. 국보 제277호인 초조본대방광불 화엄경 주본 권제3과 보물 제1153호인 묘법연화경 권제1~3 등 국가문화재 10점 등 2,000여점의 자료를 소장하고 있다.",셔틀버스(시외버스터미널 정류장),033-730-9000,강원도 원주시청,2018-05-25,4190000,강원도 원주시,
뮤지엄산(청조갤러리),사립,강원도 원주시 지정면 오크밸리 2길 260,강원도 원주시 지정면 월송리 산129-5,37.4154428,127.8237167,033-730-9000,한솔문화재단,http://museumsan.org/,,10:30,18:00,10:30,18:00,매주 월요일 (*월요일이 공휴일인 경우 정상 개관,15000,10000,0,,뮤지엄은 1997년부터 운영되어 오던 종이박물관(페이퍼갤러리)과 2013년 개관한 미술관(청조갤러리)으로 이루어진 종합뮤지엄,,033-730-9000,강원도 원주시청,2018-05-25,4190000,강원도 원주시,
치악산 고판화박물관,사립,강원도 원주시 신림면 물안길 62,강원도 원주시 신림면 황둔리 1706-1,37.2571309,128.1287135,033-761-7885,명주사,www.gopanhwa.com,템플스테이 운영,10:00,19:00,10:00,19:00,매주 월요일,5000,4000,3000,,"한국, 일본, 중국, 몽골 등 고판화 4,000여점을 소장하고 있다. 튿히 강원도 유형문화재 제152호 덕주사판 불설아미타경 등 7점이 강원도 문화재로 지정되어 있다. 운영기관인 명주사에서 템플스테이도 운영 중이다.","시내버스 24, 25",033-761-7885,강원도 원주시청,2018-05-25,4190000,강원도 원주시,
남원향토박물관,국립,전라북도 남원시 양림길 14-9,전라북도 남원시 어현동 37-158,35.401845,127.386952,063-620-5797,남원시청,www.namwon.go.kr/tour,광한루 063-625-4861+남원 춘향테마파크 063-620-5790~4+남원 항공우주천문대 063-620-8985+남원관광안내센터 063-632-1331,09:00,18:00,09:00,18:00,매주 월요일,0,0,0,0,"남원 지역은 예로부터 역사와 전통이 깊은 고장으로 많은 문화유산과 민속자료가 산재해 있다. 오랜 역사를 증거 하는 고대시대의 출토유물, 광한루로 대표되는 수준 높았던 조선시대 양반 문화, 정유재란기 왜적에 대항했던 선열들의 정신과 흔적들이 있다. 또한 남원은 세계적 무형유산인 판소리의 고장이며 『춘향전』, 『흥부전』등 고전 문학의 산실이자 주요 배경지였다. 남원향토박물관은 산재해 있는 남원의 유형 · 무형의 많은 문화유산을 체계적으로 수집·보존·전시·연구하기 위해 설립되었다. 이러한 체계적 수집, 연구, 전시를 통해 인류의 문화 자산을 널리 인류와 함께 향유하며, 안으로는 지역의 정체성을 함양하여 애향심을 기르고, 밖으로는 남원의 문화를 선양하여 문화유산을 온전히 후손들에게 전하고자 한다. * 개관일 2004년 5월 1일","KTX 상행 : 6시14분, 10시52분, 13시46분, 16시27분, 19시59분  하행 :8시12분, 10시40분, 13시06분, 16시51분, 22시17분 (남원에서 용산까지 2시간 35분이 소요 ) 승용차로 오실 때 서울(호남고속도로) → 전주(17번국도) → 남원(4시간 소요) 대구(광주행 88고속도로)→ 남원(2시간소요) 광주(대구행 88고속도로)→ 남원(1시간소요) 부산(남해고속도로) → 진주 → 함양(88고속도로) → 남원(3시간 30분소요) 강릉(영동고속도로) → 신갈 → 대전(호남고속도로) → 전주 → 남원",063-620-5790,남원시 관광시설사업소,2018-08-08,4700000,전라북도 남원시,
청도박물관,공립,경상북도 청도군 이서면 이서로 567,경상북도 청도군 이서면 양원리 129-5,35.694373,128.686471,054-370-2282,청도박물관,http://museum.cd.go.kr,,09:00,18:00,09:00,18:00,매주월요일,0,0,0,,2013년12월14일 개관,청도기차역(도보2분 버스터미널 도착),054-370-2282,경상북도 청도군,2018-04-30,5190000,경상북도 청도군,
합천박물관,국립,경상남도 합천군 쌍책면 황강옥전로 1558,경상남도 합천군 쌍책면 성산리 504,35.5800105,128.2820898,055-930-4882,합천박물관,http://mus.hc.go.kr/main/,주차시설+산책로+야외조각전시+인공폭포+분수대,09:00,18:00,09:00,18:00,"매주 월요일(단, 월요일이 공휴일인 경우 당일은 개관하고 그 다음 첫번째 평일에 휴관), 1월1일, 설날, 추석",0,0,0,0,"합천박물관은 2004년 12월 9일에 개관하여, 합천 지역의 전통문화와 역사에 대한 올바른 지식을 제공하고자 설립하였다.",버스: 합천-초계(성태.초계)(합천터미널)에서 쌍책정류장 하차,055-930-3171,합천군 문화체육과,2018-02-23,5480000,경상남도 합천군,
합천한의학박물관,사립,경상남도 합천군 용주면 고품길 42,경상남도 합천군 용주면 고품리 284,35.537551,128.101642,055-934-0601,합천한의학박물관,,주차시설,09:00,18:00,09:00,18:00,"매주 월요일(단, 월요일이 공휴일인 경우 당일은 개관하고 그 다음 첫번째 평일에 휴관), 1월1일, 설날, 추석",2000,1000,800,0,4000여점에 이르는 박물관 소장품은 치유의 역사를 생생히 보존하고 있으며 이를 통해 지역민들은 물론 국내외적으로 전통 한의학의 가치를 더욱 빛내고자 한다.,버스: 합천-거창(평학.대병)(합천터미널)에서 고품삼거리정류장 하차,055-930-9174,합천군 문화체육과,2018-02-23,5480000,경상남도 합천군,
해인사성보박물관,사립,경상남도 합천군 가야면 가야산로 1742-17,경상남도 합천군 가야면 치인리 산21-1,35.796694,128.076062,055-934-3150,해인사성보박물관,www.haeinsamuseum.com,주차시설,09:30,17:30,09:30,17:30,매주 월요일,2000,1000,1000,0,"해인사에 있는 사찰박물관이다.소장유물은 국가지정8점, 시도지정4점 비지정389점이 있다.",버스: 합천시외버스터미널에서 해인사행 시외버스 탑승 후 해인사 앞에서 하차,055-930-9174,합천군 문화체육과,2018-02-23,5480000,경상남도 합천군,
신풍미술관,사립,경상북도 예천군 지보면 신풍1리길 50,경상북도 예천군 지보면 신풍리 114-2,36.53994783,128.4367743,054-653-9329,신풍미술관,http://www.sinpungartm.org/,"주차장, 화장실 등",10:00,17:00,10:00,17:00,"매주 월요일, 1월1일, 추석, 설날",2000,1000,1000,,신풍미술관은 2010년 7월 10일 개관,버스: 신풍1리 버스정류장(약250m),054-650-6902,경상북도 예천군청,2018-02-26,5230000,경상북도 예천군,
예천박물관,공립,경상북도 예천군 감천면 복골길 150,경상북도 예천군 감천면 포리 688,36.69977483,128.514395,054-650-8311,경상북도 예천군청,http://museum.ycg.kr/,"주차장, 화장실 등",09:00,18:00,09:00,18:00,"매주 월요일, 1월1일, 추석, 설날",0,0,0,,예천박물관은 2015년12월29일 등록,버스:감천 덕율삼거리(약1.43km),054-650-6395,경상북도 예천군청,2018-02-26,5230000,경상북도 예천군,
신풍미술관,사립,경상북도 예천군 지보면 신풍1리길 50,경상북도 예천군 지보면 신풍리 114-2,36.53994783,128.4367743,054-653-9329,신풍미술관,http://www.sinpungartm.org/,"주차장, 화장실 등",10:00,17:00,10:00,17:00,"매주 월요일, 1월1일, 추석, 설날",2000,1000,1000,,신풍미술관은 2010년 7월 10일 개관,버스: 신풍1리 버스정류장(약250m),054-650-6902,경상북도 예천군청,2018-02-26,5230000,경상북도 예천군,
예천박물관,공립,경상북도 예천군 감천면 복골길 150,경상북도 예천군 감천면 포리 688,36.69977483,128.514395,054-650-8311,경상북도 예천군청,http://museum.ycg.kr/,"주차장, 화장실 등",09:00,18:00,09:00,18:00,"매주 월요일, 1월1일, 추석, 설날",0,0,0,,예천박물관은 2015년12월29일 등록,버스:감천 덕율삼거리(약1.43km),054-650-6395,경상북도 예천군청,2018-02-26,5230000,경상북도 예천군,
인천개항박물관,공립,인천광역시 중구 신포로 23번길 89,,37.4732355,126.6182431,032-760-7508,인천광역시중구시설관리공단,http://www.icjgss.or.kr/open_port/,,09:00,18:00,09:00,18:00,매주 월요일,500,300,200,통합관람권 10~35퍼센트할인,,,032-760-7508,인천광역시중구시설관리공단,2018-08-13,3490000,인천광역시 중구,
짜장면박물관,공립,인천광역시 중구 차이나타운로 56-14,,37.4748195,126.6160083,032-773-9812,인천광역시중구시설관리공단,http://www.icjgss.or.kr/jajangmyeon/,,09:00,18:00,09:00,18:00,매주 월요일,500,300,200,통합관람권 10~35퍼센트할인,,,032-773-9812,인천광역시중구시설관리공단,2018-08-13,3490000,인천광역시 중구,
영종역사관,공립,인천광역시 중구 구읍로 63 (중산동),,37.489195,126.576549,032-760-6300,인천광역시 중구청,,,10:00,18:00,10:00,18:00,매주 월요일 + 설날 연휴 + 추석 연휴 + 1월 1일,1000,700,500,단체(20인 이상) 10~35퍼센트할인,,,032-760-6300,인천광역시 중구청,2018-08-13,3490000,인천광역시 중구,
중구생활사전시관,공립,인천광역시 중구 신포로 23번길 101,,37.472437,126.6222392,032-766-2202,인천광역시중구시설관리공단,,,09:00,18:00,09:00,18:00,매주 월요일,1000,700,500,통합관람권 10~35퍼센트할인,,,032-766-2202,인천광역시중구시설관리공단,2018-08-13,3490000,인천광역시 중구,
인천개항장 근대건축전시관,공립,인천광역시 중구 신포로 23번길 77,,37.4728595,126.6211542,032-760-7549,인천광역시중구시설관리공단,http://www.icjgss.or.kr/architecture,,09:00,18:00,09:00,18:00,매주 월요일,500,300,200,통합관람권 10~35퍼센트할인,,,032-760-7549,인천광역시중구시설관리공단,2018-08-13,3490000,인천광역시 중구,
한중문화관,공립,인천광역시 중구 제물량로 238,,37.4735399,126.6187688,032-760-7860,인천광역시중구시설관리공단,http://www.hanjung.go.kr/,,09:00,18:00,09:00,18:00,매주 월요일,1000,700,500,통합관람권 10~35퍼센트할인,,,032-760-7860,인천광역시중구시설관리공단,2018-08-13,3490000,인천광역시 중구,
성남아트센터 큐브미술관,공립,경기도 성남시 분당구 성남대로 808(야탑동 757),경기도 성남시 분당구 야탑동 757,37.402839,127.130404,031-783-8000,성남문화재단,www.snab.or.kr,,10:00,18:00,09:00,18:00,매주 월요일,0,0,0,기획전시 별도 부과,,,031-783-8000,성남문화재단,2018-04-30,3780000,경기도 성남시,
현대어린이책미술관 MOKA,사립,경기도 성남시 분당구 판교역로 146번길 20,경기도 성남시 분당구 백현동 541,37.392562,127.111996,031-5170-3700,현대백화점,www.hmoka.org,,09:00,18:00,10:00,19:00,"매주 월요일, 1월 1일, 설날 및 추석 당일과 다음날",0,0,0,,,,031-5170-3700,현대백화점,2018-04-30,3780000,경기도 성남시,
미누현대미술관,사립,경기도 성남시 수정구 공원로 360 두산상가빌딩 3층,경기도 성남시 수정구 신흥동 2024,37.446160,127.149446,031-754-9696,미누현대미술관,www.minooart.com,,09:00,18:00,09:00,18:00,"매주 월요일 추석, 설날 당일",8000,15000,15000,"장애인 단체 관람시 50 할인, 65세 이상, 장애인은 개인 관람시 무료",,,031-754-9696,미누현대미술관,2018-04-30,3780000,경기도 성남시,
신구대학교식물원 갤러리 우촌,사립,경기도 성남시 수정구 적푸리로 9(상적동),경기도 성남시 중원구 상적동 산123-1,37.433957,127.081509,031-724-1625,신구대학교,https://www.sbg.or.kr,,09:00,18:00,09:00,18:00,매주 월요일,7000,5000,5000,"장애인 1급~3급, 신구대교직원및재학생, 적푸리로 9번길 거주자",,,031-724-1625,신구대학교,2018-04-30,3780000,경기도 성남시,
판교박물관,공립,경기도 성남시 분당구 판교로 191 판교역사공원,경기도 성남시 분당구 판교동 499,37.400791,127.095656,031-729-4535,성남시,www.pangyomuseum.go.kr,자전거보관대,09:00,18:00,09:00,18:00,"매주 월요일 (단, 월요일이 공휴일인 경우 당일은 개관하고 그 다음 첫번째 평일에 휴관), 1월1일, 추석 설 연휴, 국경일, 경축일",0,0,0,,판교택지개발시 출토된 삼국시대 굴식돌방무덤의 보존 및 전시,"버스 71,73,75,330,350,380,400,9005,9007,1007,5000",031-729-4535,성남시,2018-04-30,3780000,경기도 성남시,
신구대학 우촌박물관,사립,경기도 성남시 중원구 광명로 377,경기도 성남시 중원구 금광2동 2685,37.448846,127.167645,031-740-1258,신구대학교,museum.shingu.ac.kr,,10:00,17:00,00:00,00:00,주말 및 공휴일,0,0,0,,,"버스 250, 220, 2-1, 51, 33-1, 300, 720, 720-1, 77-1, 116-3, 17, 17-1,119, 9408,3330,4000,9607,7200 지하철 분당선 이매역 1번 출구",031-740-1258,신구대학교,2018-04-30,3780000,경기도 성남시,
기당미술관,공립,제주특별자치도 서귀포시 남성중로 153번길 15,,33.2446568,126.5517975,064-733-1586,기당미술관,http://culture.seogwipo.go.kr/gidang/,,09:00,18:00,09:00,18:00,매주 월요일. 설날. 추석. 1월1일,1000,500,300,단체 관람 시 할인,,,064-710-3415,제주특별자치도청 문화정책과,2018-07-03,6520000,제주특별자치도 서귀포시,
신영영화박물관 무비스타,사립,제주특별자치도 서귀포시 남원읍 태위로 536,,33.2746312,126.7058491,064-805-0008,신영영화박물관무비스타,http://blog.naver.com/shmoviestar,,10:00,18:00,10:00,18:00,매월 3째주 월요일,9000,8000,0,단체 관람 시 할인,,,064-710-3415,제주특별자치도청 문화정책과,2018-07-03,6520000,제주특별자치도 서귀포시,
초콜릿 박물관,사립,제주특별자치도 서귀포시 대정읍 일주서로3000번길 144 대정농공단기 내,,33.2576761,126.2287876,064-792-3121,초콜릿 박물관,http://www.chocolatemuseum.org/,,10:30,18:00,10:30,18:00,연중무휴,6000,0,4000,,,,064-710-3415,제주특별자치도청 문화정책과,2018-07-03,6520000,제주특별자치도 서귀포시,
제주추사관,공립,제주특별자치도 서귀포시 대정읍 추사로 44,,33.249837,126.2786308,064-710-6803,제주추사관,http://www.jeju.go.kr/chusa/index.htm,,09:00,18:00,09:00,18:00,매주 월요일. 설날. 추석. 1월1일,0,0,0,단체 관람 시 할인,,,064-710-3415,제주특별자치도청 문화정책과,2018-07-03,6520000,제주특별자치도 서귀포시,
조안베어뮤지엄,사립,제주특별자치도 서귀포시 대포로 113,,33.2402854,126.4342037,064-739-1024,조안베어뮤지엄,http://www.joannestudio.co.kr/,,09:00,18:00,09:00,18:00,연중무휴,5000,4000,3000,도민할인,,,064-710-3415,제주특별자치도청 문화정책과,2018-07-03,6520000,제주특별자치도 서귀포시,
소암기념관,공립,제주특별자치도 서귀포시 물동산길 22,제주특별자치도 서귀포시 서귀동 157-2,33.245175,126.567688,064-760-3511,소암기념관,http://culture.seogwipo.go.kr/soam/,,09:00,18:00,09:00,18:00,매주 월요일. 설날. 추석. 1월1일,0,0,0,,,,064-710-3415,제주특별자치도청 문화정책과,2018-07-03,6520000,제주특별자치도 서귀포시,
유인미술관,사립,제주특별자치도 서귀포시 성산읍 고성리 21,,33.4291727,126.9300971,064-731-7791,휘닉스중앙제주,http://www.yuminart.org/,,09:00,18:00,09:00,18:00,매주 화요일,12000,9000,9000,도민할인,,,064-710-3415,제주특별자치도청 문화정책과,2018-07-03,6520000,제주특별자치도 서귀포시,
김영갑갤러리 (두모악),사립,제주특별자치도 서귀포시 성산읍 삼달로 137,,33.3720645,126.8541795,064-784-9905,두모악,http://www.dumoak.com/,,09:30,18:00,09:30,18:00,매주 수요일. 설날. 추석. 1월1일,4500,3000,1500,도민할인,,,064-710-3415,제주특별자치도청 문화정책과,2018-07-03,6520000,제주특별자치도 서귀포시,
제주커피박물관 바움,사립,제주특별자치도 서귀포시 성산읍 서성일로 1168번길 89-17,,33.4398006,126.8991174,064-784-2255,바움,http://jejubaum.com/,,09:00,18:00,09:00,18:00,연중무휴,0,0,0,,,,064-710-3415,제주특별자치도청 문화정책과,2018-07-03,6520000,제주특별자치도 서귀포시,
세계오지민속박물관 (베니스랜드),사립,제주특별자치도 서귀포시 성산읍 서성일로 474,,33.414387,126.840654324,064-784-6565,베니스랜드,http://theveniceland.com/,,09:00,18:00,09:00,18:00,연중무휴,12000,10000,8000,단체 관람 시 할인,,,064-710-3415,제주특별자치도청 문화정책과,2018-07-03,6520000,제주특별자치도 서귀포시,
제주해양과학관 (아쿠아플라넷),사립,제주특별자치도 서귀포시 성산읍 섭지코지로 93-15,,33.4345727,126.9263432,064-780-0900,한화,http://www.aquaplanet.co.kr/jeju/index.jsp,,10:00,19:00,10:00,19:00,연중무휴,40900,39200,37200,단체 관람 시 할인,,,064-710-3415,제주특별자치도청 문화정책과,2018-07-03,6520000,제주특별자치도 서귀포시,
제주항공우주박물관,사립,제주특별자치도 서귀포시 안덕면 녹차분재로 218,,33.304846,126.2997200,064-800-2009,JDC,https://www.jdc-jam.com/index.jam,,09:00,18:00,09:00,18:00,매월 셋째주 월요일,10000,9000,8000,단체 관람 시 할인,,,064-710-3415,제주특별자치도청 문화정책과,2018-07-03,6520000,제주특별자치도 서귀포시,
본태박물관,사립,제주특별자치도 서귀포시 안덕면 산록남로762번길 69,,33.3037917,126.3923999,064-792-8108,본태박물관,http://www.bontemuseum.com/,,10:00,18:00,10:00,18:00,연중무휴,20000,14000,12000,단체 관람 시 할인,,,064-710-3415,제주특별자치도청 문화정책과,2018-07-03,6520000,제주특별자치도 서귀포시,
설록차전시관,사립,제주특별자치도 서귀포시 안덕면 신화역사로 15,,33.3063942,126.2905203,064-794-5312,아모레퍼시픽,http://www.osulloc.com/kr/ko/museum,,09:00,19:00,09:00,19:00,연중무휴,0,0,0,,,,064-710-3415,제주특별자치도청 문화정책과,2018-07-03,6520000,제주특별자치도 서귀포시,
제주건강과 성 박물관,사립,제주특별자치도 서귀포시 안덕면 일주서로 1611,,33.2546582,126.3467011,064-792-5700,(주)에스메카,http://www.sexmuseum.or.kr/,,09:00,20:00,09:00,20:00,연중무휴,12000,0,0,단체 관람 시 할인,,,064-710-3415,제주특별자치도청 문화정책과,2018-07-03,6520000,제주특별자치도 서귀포시,
포레스트판타지아,사립,제주특별자치도 서귀포시 안덕면 일주서로 1836,,33.256807,126.321633,064-794-9680,제주조각공원,http://forestfantasia.com/,,09:00,23:59,09:00,23:59,연중무휴,15000,13000,10000,전일권. 주간권 별도,,,064-710-3415,제주특별자치도청 문화정책과,2018-07-03,6520000,제주특별자치도 서귀포시,
세계자동차 제주박물관,사립,제주특별자치도 서귀포시 안덕면 중산간서로 1610,,33.2831948,126.349772,064-792-3000,세계자동차 제주박물관,http://www.koreaautomuseum.com/,,09:00,18:00,09:00,18:00,연중무휴,11000,10000,10000,단체 관람 시 할인,,,064-710-3415,제주특별자치도청 문화정책과,2018-07-03,6520000,제주특별자치도 서귀포시,
헬로키티아일랜드,사립,제주특별자치도 서귀포시 안덕면 한창로 340,,33.2902193,126.3498521,064-792-6114,㈜제이콥 씨앤이,http://www.hellokittyisland.co.kr/index.asp,,09:00,18:00,09:00,18:00,연중무휴,14000,13000,11000,단체 관람 시 할인,,,064-710-3415,제주특별자치도청 문화정책과,2018-07-03,6520000,제주특별자치도 서귀포시,
SOS박물관,사립,제주특별자치도 서귀포시 월드컵로 31,,33.2472388,126.5092079,064-738-1448,(주)피오디코리아,http://seriworld.co.kr/index.php?mid=KR03,,09:00,18:00,09:00,18:00,연중무휴,12000,10000,8000,,,,064-710-3415,제주특별자치도청 문화정책과,2018-07-03,6520000,제주특별자치도 서귀포시,
닥종이인형박물관,사립,제주특별자치도 서귀포시 월드컵로 33,,33.2472388,126.5092079,064-739-3906,닥종이인형박물관,http://cafe.naver.com/dakpaper,,09:00,19:00,09:00,19:00,연중무휴,5000,4000,3000,단체 관람 시 할인,,,064-710-3415,제주특별자치도청 문화정책과,2018-07-03,6520000,제주특별자치도 서귀포시,
아프리카 박물관,사립,제주특별자치도 서귀포시 이어도로 49,,33.2398402,126.4291443,064-738-6565,아프리카박물관,http://africamuseum.alltheway.kr/,,09:00,19:00,09:00,19:00,연중무휴,10000,9000,8000,단체 관람 시 할인,,,064-710-3415,제주특별자치도청 문화정책과,2018-07-03,6520000,제주특별자치도 서귀포시,
이중섭미술관,공립,제주특별자치도 서귀포시 이중섭로 27-3,,33.2459155,126.5649489,064-760-3567,이중섭미술관,http://culture.seogwipo.go.kr/jslee/,,09:00,18:00,09:00,18:00,매주 월요일. 설날. 추석. 1월1일,1500,800,400,단체 관람 시 할인,,,064-710-3415,제주특별자치도청 문화정책과,2018-07-03,6520000,제주특별자치도 서귀포시,
박물관은살아있다,사립,제주특별자치도 서귀포시 중문관광로 42,,33.2549224,126.4087187,064-805-0888,크리에이티브통,http://www.alivemuseum.com/branch/jeju,,09:00,21:30,09:00,21:30,연중무휴,12000,11000,10000,단체 관람 시 할인,,,064-710-3415,제주특별자치도청 문화정책과,2018-07-03,6520000,제주특별자치도 서귀포시,
곰완구전시관 (테디베어뮤지엄),사립,제주특별자치도 서귀포시 중문관광로110번길 31 중문관광단지내,,33.2486522,126.4124374,064-738-7600,테디베어뮤지엄,http://www.teddybearmuseum.com/museums/jeju/,,09:00,19:00,09:00,19:00,연중무휴,10000,9000,8000,단체 관람 시 할인,,,064-710-3415,제주특별자치도청 문화정책과,2018-07-03,6520000,제주특별자치도 서귀포시,
제주유리박물관,사립,제주특별자치도 서귀포시 중산간서로 1403,,33.278578,126.3702742,064-792-6262,제주유리박물관,http://www.glassmuseum.co.kr/main.php,,10:00,21:00,10:00,21:00,연중무휴,9000,8000,7000,단체 관람 시 할인,,,064-710-3415,제주특별자치도청 문화정책과,2018-07-03,6520000,제주특별자치도 서귀포시,
왈종미술관,사립,제주특별자치도 서귀포시 칠십리로214번길 30,,33.2452223,126.5738961,064-763-3600,재단법인 왈종후연미술문화재단,http://walartmuseum.or.kr/,,10:00,18:00,10:00,18:00,1월1일,5000,3000,3000,단체 관람 시 할인,,,064-710-3415,제주특별자치도청 문화정책과,2018-07-03,6520000,제주특별자치도 서귀포시,
세계조가비박물관,사립,제주특별자치도 서귀포시 태평로 284,,33.2474572,126.551644,064-762-5551,세계조가비박물관,http://www.wsmuseum.co.kr/,,08:30,19:00,08:30,19:00,연중무휴,6000,5000,4000,단체 관람 시 할인,,,064-710-3415,제주특별자치도청 문화정책과,2018-07-03,6520000,제주특별자치도 서귀포시,
자연사랑 미술관,사립,제주특별자치도 서귀포시 표선면 가시로613번길 46,,33.3554682,126.7714844,064-787-3110,자연사랑,http://hallaphoto.com/default/,,10:00,18:00,10:00,18:00,연중무휴,0,0,0,도민할인,,,064-710-3415,제주특별자치도청 문화정책과,2018-07-03,6520000,제주특별자치도 서귀포시,
제주민속촌,사립,제주특별자치도 서귀포시 표선면 민속해안로 631-34,,33.3223451,126.8414874,064-787-4501,제주민속촌,http://www.jejufolk.com/,,08:30,18:00,08:30,18:00,연중무휴,11000,8000,7000,단체 관람 시 할인,,,064-710-3415,제주특별자치도청 문화정책과,2018-07-03,6520000,제주특별자치도 서귀포시,
세계술박물관,사립,제주특별자치도 서귀포시 표선면 한마음초등로 431,,33.353959,126.817669,064-787-9500,세계술박물관,https://www.worlm.co.kr/,,09:00,18:00,09:00,18:00,연중무휴,5000,4000,2000,단체 관람 시 할인,,,064-710-3415,제주특별자치도청 문화정책과,2018-07-03,6520000,제주특별자치도 서귀포시,
감귤박물관,사립,제주특별자치도 서귀포시 효돈순환로 441,,33.2715236,126.6076604,064-760-6398,감귤박물관,http://citrus.seogwipo.go.kr/,,09:00,18:00,09:00,18:00,1월1일. 설날. 추석,1500,1000,800,단체 관람 시 할인,,,064-710-3415,제주특별자치도청 문화정책과,2018-07-03,6520000,제주특별자치도 서귀포시,
박을복자수박물관,사립,서울특별시 강북구 삼양로 149가길53,서울특별시 강북구 우이동 86-4,37.653998,127.008541,02-990-7000,박을복자수박물관,http://www.embromuseum.com,,12:00,17:00,23:59,23:59,"매주 토,일,국가공휴일",6000,4000,4000,"단체(20명이상) 성인 3,000원, 청소년·어린이 2,000원",현대 한국자수 발전에 기여한 박을복 선생의 업적을 기리고 한국 자수의 역사 및 감상 자수를 일반에게 선보여 문화향수의 기회 제공,"지하철 4호선 수유역(3번 출구)에서 120번, 153번 탑승 후 덕성여대 하차",02-901-6215,서울특별시 강북구청,2018-08-11,3080000,서울특별시 강북구,
무안군오승우미술관,공립,전라남도 무안군 삼향읍 초의길 7,전라남도 무안군 삼향읍 왕산리 1020,34.852575,126.415342,061-450-5482,무안군,http://museum.muan.go.kr,"주차장, 화장실, 카페테리어 등",09:00,18:00,09:00,18:00,"매주 월요일, 1월1일, 추석, 설",0,0,0,,2011.2.24 개관,,061-450-5482,무안군 관광문화과,2018-06-15,4950000,전라남도 무안군,
이천시립월전미술관,공립,경기도 이천시 경충대로 2709번길 185,경기도 이천시 관고동 378번지 185,37.279731,127.424379,031-637-0033,재단법인 월전미술문화재단,http://www.iwoljeon.org/,아트샵+카페+세미나실,10:00,18:00,10:00,18:00,신정+설날 당일+추석 당일,2000,1000,600,"이천시민 50퍼센트할인+영유아 및 65세 이상 무료+그린카드 30퍼센트할인,+예술인패스 30퍼센트할인",이천시립월전미술관은 한국화의 거장 월전 장우성선생을 기리는 기념관적 성격의 미술관 입니다.,"이천시외버스터미널에서 28-1, 8, 111, 22-9번 버스 탑승후 설봉산입구 정류장 하차.설봉산입구에서 도보 20분. 이천역에서 8, 28-1번 버스 탑승 후 설봉산입구 정류장 하차, 설봉산 입구에서 도보 20분.",031-645-3653,경기도 이천시청,2018-02-23,4070000,경기도 이천시,
이천시립박물관,공립,경기도 이천시 경충대로 2697번길 172,경기도 이천시 관고동 418-3,37.275088,127.427271,031-635-8500,재단법인 신재문화재단,http://www.icheon.go.kr/site/museum/main.do,없음,09:00,18:00,09:00,18:00,매주월요일+설날당일+추석당일+법정공휴일다음날,0,0,0,무료,"이천시립박물관은 이천고을의 고고, 역사, 민속문화에 관한 자료를 통해 이천의 정체성을 알리고 도자문화의 메카로서 전통을 계승하고 있습니다.",이천설봉공원 내,031-645-3654,경기도 이천시청,2018-02-23,4070000,경기도 이천시,
유엔평화기념관,사립,부산광역시 남구 홍곡로320번길 106,,35.125133,129.093215,051-901-1400,유엔평화기념관,,,10:00,18:00,10:00,18:00,"매주 월요일, 단 국가공휴일과 월요일이 겹칠 경우 당일은 개관하고 다음날 휴관",0,0,0,,,,051-901-1400,(사)국제평화기념사업회,2018-08-14,3310000,부산광역시 남구,
경성대학교박물관,대학,부산광역시 남구 수영로 309,,35.138757,129.098196,051-663-5381,경성대학교박물관,,,10:00,17:00,10:00,14:00,"토·일요일, 공휴일, 방학기간 중 관람:10:00~14:00",0,0,0,,,,051-663-5381,경성대학교,2018-08-14,3310000,부산광역시 남구,
부경대학교박물관,대학,부산광역시 남구 용소로 45,,35.133925,129.103718,051-629-6771,부경대학교박물관,,,10:00,17:00,00:00,00:00,"토·일요일, 공휴일",0,0,0,,,,051-629-6771,부경대학교,2018-08-14,3310000,부산광역시 남구,
부산시립박물관,공립,부산광역시 남구 유엔평화로 63,,35.129802,129.092946,051-610-7150,부산시립박물관,,,09:00,18:00,09:00,21:00,"1월 1일, 매주 월요일, 단 월요일이 공휴일인 경우 다음날 휴관",0,0,0,,,,051-610-7150,부산광역시,2018-08-14,3310000,부산광역시 남구,
경성대학교미술관,대학,부산광역시 남구 수영로 309,,35.139741,129.098121,051-663-5361,경성대학교미술관,,,10:00,18:00,10:00,18:00,"매월 둘째, 넷째 일요일",0,0,0,,,,051-663-5361,경성대학교,2018-08-14,3310000,부산광역시 남구,
하남역사박물관,공립,경기도 하남시 덕풍동로 30,경기도 하남시 덕풍동 694번지,37.544479,127.207212,031-790-7915,하남문화재단,www.hanammuseum.com,,09:00,18:00,09:00,18:00,매주 월요일,0,0,0,,,,031-790-7915,경기도 하남시 하남문화재단,2018-08-21,4040000,경기도 하남시,
정림사지박물관,공립,충청남도 부여군 부여읍 정림로 83,충청남도 부여군 부여읍 동남리 364,36.278819,126.915851,041-832-2721,부여군시설관리공단,http://www.jeongnimsaji.or.kr/,뮤지엄샵+영상실+연지,09:00,18:00,09:00,18:00,"1월1일, 설날, 추석",1500,900,700,단체 30명 이상 약20퍼센트 감면,백제시대 가장 화려했던 사비시기의 불교유적 등 백제의 꿈과 땀이 담긴 박물관,,041-830-2626,충청남도 부여군청,2018-07-20,4570000,충청남도 부여군,
예송미술관,공립,서울특별시 송파구 백제고분로 242 구민회관 1층,서울특별시 송파구 삼전동 62-2,37.502096,127.093223,02-2147-2810,서울특별시 송파구청,http://www.songpa.go.kr,문화시설,10:00,18:00,00:00,00:00,"매주일요일, 법정공휴일",0,0,0,,송파구민들에게 수준 높은 문화향유의 기회를 제공하기 위하여 다채로운 기획전시 및 송파에서 활동하는 시각예술가들의 창작활동을 지원하고 있습니다.,2호선 종합운동장 4번출구 : 350. 3314. 3417. 34182호선 잠실역 5번출구 : 3314. 33158호선 석촌역 7번출구 : 340. 350. 3012,02-2147-2810,서울특별시 송파구청,2018-07-30,3230000,서울특별시 송파구,
한국광고박물관,사립,서울특별시 송파구 올림픽로35길 137 한국광고문화회관 3층,서울특별시 송파구 신천동 7-11,37.515804,127.099629,02-2144-0116,한국방송광고진흥공사,http://admuseum.kobaco.co.kr/main.jsp,문화시설,09:30,17:30,00:00,00:00,"매주월요일, 법정공휴일",0,0,0,,"한국광고박물관은 광고산업과 광고문화 발전을 위한 광고인프라시설로서 2008년 11월 7일에 개관하였습니다. 광고박물관은 한국의 광고역사, 광고의 순기능, 광고제작과정 등을 유물, 광고자료, 멀티미디어 체험을 통해 이해 할 수 있는 광고 전문박물관으로서 국내 유일의 디지털아카이브관을 구축하여 사라져 가는 역사적인 영상 인쇄광고 자료를 보존하고 있습니다","지하철 2,8호선 잠실역 하차, 2호선 7번 출구에서 도보 5분간선버스 : 301, 320, 303, 360, 362, 730지선버스 : 2225, 2311, 2412, 3215, 3216, 3217, 3312, 3313, 3314, 3315, 3411, 3412,                  3413, 3414, 3415광역버스 : 9202, 9203, 9403공항버스 : 600, 606자가용 주차시엔 무료주차 불가",02-2144-0116,한국방송광고진흥공사,2018-07-30,3230000,서울특별시 송파구,
소마미술관,사립,서울특별시 송파구 올림픽로 424,서울특별시 송파구 오륜동 11,37.516853,127.118219,02-425-1077,국민체육진흥공단,http://soma.kspo.or.kr/,문화시설,10:00,18:00,10:00,18:00,"매주월요일, 1월 1일, 설날, 추석 당일",3000,2000,1000,"무료(만65세이상, 국가유공자, 장애인(1~3급이상동반1인까지 무료)",소마미술관은 국민체육진흥공단이 국민의 예술적 정서함양을 위하여 2004년 9월 개관한 대중지향적 문화예술공간입니다.,올림픽공원 평화의문광장 정류장 일반버스30일반버스30-5파란버스340녹색버스3412녹색버스3413 올림픽공원 정류장 일반버스30일반버스30-5녹색버스3412녹색버스34138호선 몽촌토성역8번 출구 / 평화의 문 내에서 오른편으로 200M 도보,02-410-1070,스포츠레져사업본부,2018-07-30,3230000,서울특별시 송파구,
서울올림픽기념관,사립,서울특별시 송파구 올림픽로 424,서울특별시 송파구 잠실4동 26,37.520285,127.115438,02-410-1354,국민체육진흥공단,http://88olympic.kspo.or.kr,문화시설,10:00,18:00,10:00,18:00,"매주월요일, 1월 1일, 설날, 추석 당일",0,0,0,,"서울올림픽기념관은 서울올림픽의 영광을 재조명하고 올림픽 정신을 계승 발전시키기위함으로 지금은 다양한 이벤트 프로그램의 운영, 사이버 기념관의 활성화 및 스포츠센터와 연계한 체험학습 프로그램개발, 올림픽 기념사업등을 시민들이 참여하고 즐길수 있는 열려있는 공간으로 구성되어 있다",승용차 :올림픽회관(서1문) 또는 올림픽파크텔(서2문) 입구 이용지하철 :8호선 몽촌토성역 하차 1번출구 (도보 약 4분),02-410-1354,국민체육진흥공단,2018-07-30,3230000,서울특별시 송파구,
롯데월드민속박물관,사립,서울특별시 송파구 올림픽로 240 호텔롯데 롯데월드,서울특별시 송파구 잠실동 40-1,37.511211,127.097607,1661-2000,㈜롯데호텔,http://www.lotteworld.com,문화시설,09:30,20:00,09:30,20:00,연중무휴,5000,3000,3200,"65세이상 -청소년요금적용장애인,국가유공자는 증 보유시 (동반1인포함) : 단체요금으로 적용","구석기시대부터 일제강점기까지의 우리역사를 시대별로 구분하여 실제유물과 함께 모형으로 재현하여 알기 쉽고 재미있게 관람이 가능하도록 전시되어 있습니다. 특히, 모형촌은 8분의 1로 축소된 2천여 점의 인형을 이용하여 조선시대의 사계절과 세시풍속,관혼상제, 양반과 서민들의 생활모습을 사실적으로 표현하였습니다.","버스지선버스지선버스 3217번, 3313번, 3314번, 3315번, 3317번, 3411번, 3414번, 4319번급행열차급행열차 1007-1번, 1100번, 1700번, 2000번, 6900번, 7007번, 8001번간선버스간선버스 301번, 341번, 360번, 362번공항버스공항버스 6000번, 6006번, 6705번, 6706A번지하철 2호선 잠실역 4번출구 하차,",1661-2000,㈜롯데호텔,2018-07-30,3230000,서울특별시 송파구,
한미사진미술관,사립,"서울특별시 송파구 위례성대로14, 한미타워 19.20층",서울특별시 송파구 방이동 45,37.516450,127.113703,02-418-1315,가현문화재단,http://www.photomuseum.or.kr/,문화시설,10:00,19:00,11:00,18:30,매주일요일,6000,5000,0,"10인 이상 단체 1,000원 할인 * 관람료는 전시에 따라 달라집니다. 할인사진전공 학생, 송파구민(신분증 확인), 10인이상 단체무료경로(65세 이상), 장애우, 미취학 아동, 국가유공자","한미사진미술관은 전시를 비롯하여 작가지원 및 학술, 출판, 국제 교류 등의 활동을 하는 한편, 사진문화예술의 활성화를 위해 활동하는 문화예술 단체들을 후원함으로서 상호협력체계를 형성하고 함께 성장할 수 있는 기회를 가지는데 목적이 있습니다. 특히, 한국 근·현대사진을 소장 및 연구함으로서 한국사진사의 체계화를 위해 노력하고 있습니다","지하철 :8호선 몽촌토성역 2번 출구 50m 직진 올림픽 공원 평화의 문 맞은편 한미타워 19, 20층버스 : 30, 30-5, 333, 3412, 3413 _ 올릭픽공원역 하차",02-418-1315,가현문화재단,2018-07-30,3230000,서울특별시 송파구,
한성백제박물관,공립,"서울특별시 송파구 위례성대로71, 한성백제박물관",서울특별시 송파구 방이동 88-20,37.515488,127.119013,02-2152-5800,서울특별시,http://baekjemuseum.seoul.go.k,문화시설,09:00,21:00,09:00,19:00,"매주월요일, 1월 1일, 시장이 정하는 휴관일(관장에게 위임) 단, 월요일이 공휴일인 경우 휴관하지 않음",0,0,0,상설전시실 무료 (특별·기획전시는 유료로 진행될 수 있음),한성백제 박물관은 서울시 송파구의 고대역사 유적지에 건립된 박물관으로 고대 역사와 문화를 연구하여 알리고자 설립되었다,"지하철 :8호선 몽촌토성역 1번 출구에서 남2문 방향으로 650m (도보10~15분)           5호선 올림픽공원역 3번 출구에서 남2문 방향으로 1km(도보15~20분)버스 : 올림픽공원역 방향에서 오실 때 30-5, 3412, 3413 한성백제박물관 하차         몽촌토성역 방향에서 오실 때 30, 30-5, 3412, 3413 올림픽베어스타운 하차         방이동사거리 방향에서 오실 때 3216, 3414 한성백제박물관 하차자가용 : 잠실, 풍납동 방면에서 오실 때 (남2문앞에서 유턴 후 250m에서 진입)       둔촌동, 오금동 방면에서 오실 때 (남2문에서 남3문방향으로 250m에서 진입)",02-2152-5800,서울특별시,2018-07-30,3230000,서울특별시 송파구,
몽촌역사관,공립,서울특별시 송파구 올림픽로424,서울특별시 송파구,37.523868,127.122106,02-2152-5900,서울특별시,http://baekjemuseum.seoul.go.k,문화시설,09:00,18:00,09:00,18:00,"매주월요일,1월1일 휴관",0,0,0,,청동기시대 움집·백제의 도읍이었던 풍납토성과 몽촌토성·삼국시대 고분군 등 문화유적과 유물을 주로 전시하고 있어 서울의 역사와 문화를 몸소 느끼고 체험할 수 있답니다.특히 몽촌역사관에서는 어린이들을 대상으로 한 다채로운 교육프로그램 및 문화행사를 운영하고 있습니다.,지하철 8호선 - 몽촌토성역 1번 출구 하차. 평화의 문 안으로 들어와서 도보로 20분,02-2152-5900,서울특별시,2018-07-30,3230000,서울특별시 송파구,
롯데월드아쿠아리움,사립,서울특별시 송파구 올림픽로300,서울특별시 송파구 신천동 29,37.513652,127.102892,1661-2000,㈜롯데호텔,http://www.lotteworld.com,문화시설,10:00,22:00,10:00,22:00,연중무휴,29000,27000,25000,"연간이용권 어른및 청소년 : 90,000원어린이 : 70,000원(1년간 자유임장)","사람과 자연이 꿈꾸는 바다를 매개원으로 하는 사람과 자연이 더불어 사는 즐거운 세상을 꿈꾸는 롯데월드 아쿠아리움. 깊고 드넓은 해양 생태계 그대로를 재현하겠다는 신념과 고집으로 지금까지의 아쿠아리움에 대한모든 기준을 버리고 해양생물의 입장이 되어, 당신의 입장이 되어 원점에서부터 시작합니다","버스지선버스지선버스 3217번, 3313번, 3314번, 3315번, 3317번, 3411번, 3414번, 4319번급행열차급행열차 1007-1번, 1100번, 1700번, 2000번, 6900번, 7007번, 8001번간선버스간선버스 301번, 341번, 360번, 362번공항버스공항버스 6000번, 6006번, 6705번, 6706A번지하철 2호선 잠실역 4번출구 하차,",1661-2000,㈜롯데호텔,2018-07-30,3230000,서울특별시 송파구,
롯데뮤지엄,사립,서울특별시 송파구 올림픽로 300,서울특별시 송파구 신천동 29,37.512540,127.100381,02-3213-1132,㈜롯데호텔,,문화시설,10:30,20:00,10:30,20:00,전시별상이,13000,10000,7000,,현대미술 작품전시,"버스지선버스지선버스 3217번, 3313번, 3314번, 3315번, 3317번, 3411번, 3414번, 4319번급행열차급행열차 1007-1번, 1100번, 1700번, 2000번, 6900번, 7007번, 8001번간선버스간선버스 301번, 341번, 360번, 362번공항버스공항버스 6000번, 6006번, 6705번, 6706A번지하철 2호선 잠실역 4번출구 하차,",02-3213-1132,㈜롯데호텔,2018-07-30,3230000,서울특별시 송파구,
옹기민속박물관,사립,서울특별시 도봉구 삼양로 574-41,,37.654480,127.014650,02-900-0900,옹기민속박물관,,,10:00,18:00,10:00,18:00,"매주 월요일, 1월1일, 설연휴, 추석연휴",0,0,0,"[개인/단체(20명)]  어른3,000원/ 2,000원, 어린이 2,000원/1,000원","옹기전시실 : 거름통, 요강, 화로, 굴뚝, 독우물 등 주거 생활용 및 악기용, 민간 신앙용 옹기 전시민속생활용품전시실 : 목공예, 짚풀공예, 종이공예, 금속공예품 등 전시야외전시실 : 큰 항아리, 옹기굴뚝, 석탑, 석등, 맷돌 등 다양한 석조물 전시","지하철: 4호선 수유역 ③번 출구 → 120(간선), 153(간선) 버스 → 서라벌중학교 하차(10분소요) → 옹기민속박물관 길로 100m 진입버스: 간선(파랑) : 120, 144, 151, 153, 지선(녹색) : 1120, 1144, 1161, 1218 서라벌중학교 하차 → 옹기민속박물관 길로 100m 진입마을버스:  01 창동역, 02 수유역6번출구 약초원 하차",02-900-0900,서울특별시 도봉구청,2018-05-15,3090000,서울특별시 도봉구,
덕성여자대학교 박물관,사립,서울특별시 도봉구 근화교길 19 덕성여자대학교,,37.668770,127.047070,02-901-8131,덕성여자대학교 박물관,http://museum.duksung.ac.kr,,10:00,16:00,00:00,00:00,"토,일요일 법정공휴일 개교기념일, 동하계 휴가기간, 기타 정부나 대학에서 임시휴일로 정하는 날.",0,0,0,무료,"회화·도자실 : 회화류 : 조선시대 회화. 민화 등 회화류 및 각종 도자기 전시목공예실 : 조선시대 목가구, 소반, 반닫이 등복식실 : 원삼, 초의, 저고리 등 조선후기의 남녀복식 전시금속공예실 : 청동병, 동경 등 고려시대의 청동기유물, 등잔, 촛대 등 조선후기의 등기류, 나전칠기류 등 전시","지하철: 4호선 수유역 하차 덕성여자대학교 방향 버스 이용(101번, 170번, 1144번, 1217번)버스: 101번, 109번, 144번, 151번, 170번, 1144번, 1217번, 1218번 ,1219번",02-901-8131,서울특별시 도봉구청,2018-05-15,3090000,서울특별시 도봉구,
산악박물관,사립,서울특별시 도봉구 도봉산길 86,,37.687480,127.034080,02-909-3693,산악박물관,http://eco-institute.knps.or.kr/,,10:00,17:00,10:00,17:00,"매주 월요일, 1월1일, 설 연휴, 추석연휴",0,0,0,무료,,"지하철: 1호선, 7호선 도봉산역 하차 도보 15분 정도 소요버스: 간선(파랑) 141,142, 지선(녹색) 1127,1128 도봉산입구하차 /간선(파랑) 100,106,107,108,140,150,160, 지선(녹색) 1018,1019,1139,1148,1151 도봉산역하차",02-909-3693,서울특별시 도봉구청,2018-05-15,3090000,서울특별시 도봉구,
신평생활사박물관,국립,전라북도 임실군 신평면 석등슬치로369,전라북도 임실군 신평면 원천리 212,35.6571911,127.2218922,063-640-4121,임실군 신평면,http://lifem.imsil.go.kr,화장실,09:00,18:00,09:00,09:00,전화문의,0,0,0,무료,2002년12월24일 규모 지상2층이며 소장 전시유물은 650점입니다 직원과 12개 마을 주민들이 희사한 전근대 농촌 생활유물을 전시조상들의 생활상을 엿볼 수 있는 임실군에 하나뿐인 생활사 박물관입니다,신평면사무소 내 위치,063-640-4122,임실군 신평면,2018-08-01,4760000,전라북도 임실군,
조태일 시문학기념관,공립,전라남도 곡성군 죽곡면 태안로 622-38,전라남도 곡성군 죽곡면 원달리 20,35.1334403,127.3685909,061-362-5868,곡성군청,http://www.gokseong.go.kr/tour/?pid=90&act=view&SEQ=94,창작실,09:00,18:00,09:00,18:00,매주 월요일,0,0,0,무료,조태일 시문학기념관은 199년 타계한 문단의 큰별인 죽형 조태일선생을 기리기 위해 2003년 곡성군에서 건립하였다.,,061-360-8253,전라남도 곡성군청,2018-03-19,4860000,전라남도 곡성군,
거창박물관,공립,경상남도 거창군 거창읍 수남로 2181,경상남도 거창군 거창읍 김천리 216-5번지,35.674153,127.910680,055-940-8740,거창박물관,museum.geochang.go.kr,장애인 시설,09:00,17:00,09:00,17:00,"1.1, 설추석 당일,월요일",0,0,0,전부무료,"거창 향토 사학자 최남식, 김태순 두 분의 기증유물 1,000점으로 1988. 5. 20. 건립된 군단위 최초 공립박물관",,055-940-8740,경상남도 거창군,2018-08-20,5470000,경상남도 거창군,
김중업건축박물관,공립,경기도 안양시 만안구 안양예술공원로103번길 4 (석수동),경기도 안양시 만안구 석수동 212-1번지,37.4176732,126.9159323,031-687-0909,안양문화예술재단,http://www.ayac.or.kr/museum/main/main.asp,문화상품점+황토마루카페+물품보관소+응급대기실+수유실+자전거보관대,09:00,18:00,09:00,18:00,매주 월요일,0,0,0,,건축박물관,,031-8045-2062,경기도 안양시,2018-08-09,3830000,경기도 안양시,
안양박물관,공립,경기도 안양시 만안구 안양예술공원로103번길 4 (석수동),경기도 안양시 만안구 석수동 212-1번지,37.4176732,126.9159323,031-687-0909,안양문화예술재단,http://www.ayac.or.kr/museum/anyang/anyang_01.asp,문화상품점+황토마루카페+물품보관소+응급대기실+수유실+자전거보관대,09:00,18:00,09:00,18:00,매주 월요일,0,0,0,,역사박물관,,031-8045-2062,경기도 안양시,2018-08-09,3830000,경기도 안양시,
돌석도예박물관,사립,경기도 안양시 만안구 병목안로 306,경기도 안양시 만안구 안양동 1126번지,37.3791442,126.9027933,031-464-7734,돌석도예박물관,http://dolsukmuseum.net/,문화상품점+황토마루카페+물품보관소+응급대기실+수유실+자전거보관대,09:00,18:00,09:00,18:00,매주 월요일,3000,2000,1000,65세이상 무료,옹기박물관,,031-8045-2062,경기도 안양시,2018-08-09,3830000,경기도 안양시,
한광미술관,사립,부산광역시 중구 중앙대로 130 한광빌딩 4층,부산광역시 중구 중앙동4가 82-1 한광빌딩 4층,35.1090054,129.0352492,051-469-0095,한광미술관,http://www.asiaart.co.kr/,주차장,10:00,17:00,00:00,00:00,공휴일,0,0,0,0,"한광미술관은 1996년 등록된 사립미술관으로 전시작품은 조선조 및 근.현대 한국화 1백70점을 비롯, 서예 병풍 북한화 일본화 중국화 서양화 등 5백50여점이 됨",중앙역에서 부산역 쪽으로 500m 지점 우측,051-600-4065,부산광역시 중구,2018-08-13,3250000,부산광역시 중구,
국립제주박물관,국립,제주특별자치도 제주시 일주동로 17,,33.5139974,126.5489702,064-720-8000,국립제주박물관,http://jeju.museum.go.kr/,,10:00,18:00,10:00,19:00,1월1일. 설날. 추석. 매주월요일,0,0,0,유료 특별 전시 있음,,,064-710-3415,제주특별자치도청 문화정책과,2018-07-03,6500000,제주특별자치도,
민속자연사박물관,공립,제주특별자치도 제주시 삼성로 40,,33.5061399,126.5316454,064-710-7708,민속자연사박물관,http://museum.jeju.go.kr/,,08:30,18:00,08:30,18:00,1월1일. 설날. 개관기념일. 추석,2000,1000,0,단체 관람 시 할인,,,064-710-3415,제주특별자치도청 문화정책과,2018-07-03,6500000,제주특별자치도,
제주교육박물관,공립,제주특별자치도 제주시 오복4길 25,,33.494451,126.5382743,064-752-9101,제주특별자치도교육청,http://www.jjemuseum.go.kr/,,09:00,18:00,09:00,18:00,1월1일. 설날. 추석. 매주월요일. 임시공휴일,0,0,0,,,,064-710-3415,제주특별자치도청 문화정책과,2018-07-03,6500000,제주특별자치도,
신영영화박물관 무비스타,사립,제주특별자치도 서귀포시 남원읍 태위로 536,,33.2746312,126.7058491,064-805-0008,신영영화박물관무비스타,http://blog.naver.com/shmoviestar,,10:00,18:00,10:00,18:00,매월 3째주 월요일,9000,8000,0,단체 관람 시 할인,,,064-710-3415,제주특별자치도청 문화정책과,2018-07-03,6500000,제주특별자치도,
제주민속촌,사립,제주특별자치도 서귀포시 표선면 민속해안로 631-34,,33.3223451,126.8414874,064-787-4501,제주민속촌,http://www.jejufolk.com/,,08:30,18:00,08:30,18:00,연중무휴,11000,8000,7000,단체 관람 시 할인,,,064-710-3415,제주특별자치도청 문화정책과,2018-07-03,6500000,제주특별자치도,
제주대학교?박물관,대학,제주특별자치도 제주시 제주대학교 102,,33.4564717,126.5653851,064-754-2242,제주대학교,http://museum.jejunu.ac.kr/,,10:00,17:00,10:00,17:00,주말. 국정공휴일,0,0,0,,,,064-710-3415,제주특별자치도청 문화정책과,2018-07-03,6500000,제주특별자치도,
설록차전시관,사립,제주특별자치도 서귀포시 안덕면 신화역사로 15,,33.3063942,126.2905203,064-794-5312,아모레퍼시픽,http://www.osulloc.com/kr/ko/museum,,09:00,19:00,09:00,19:00,연중무휴,0,0,0,,,,064-710-3415,제주특별자치도청 문화정책과,2018-07-03,6500000,제주특별자치도,
제주평화박물관,사립,제주특별자치도 제주시 한경면 청수서5길 63,,33.3056558,126.249338,064-772-2500,제주평화박물관,http://www.peacemuseum.co.kr/,,08:30,17:00,08:30,17:00,연중무휴,6000,4000,4000,단체 관람 시 할인,,,064-710-3415,제주특별자치도청 문화정책과,2018-07-03,6500000,제주특별자치도,
감귤박물관,사립,제주특별자치도 서귀포시 효돈순환로 441,,33.2715236,126.6076604,064-760-6398,감귤박물관,http://citrus.seogwipo.go.kr/,,09:00,18:00,09:00,18:00,1월1일. 설날. 추석,1500,1000,800,단체 관람 시 할인,,,064-710-3415,제주특별자치도청 문화정책과,2018-07-03,6500000,제주특별자치도,
아프리카 박물관,사립,제주특별자치도 서귀포시 이어도로 49,,33.2398402,126.4291443,064-738-6565,아프리카박물관,http://africamuseum.alltheway.kr/,,09:00,19:00,09:00,19:00,연중무휴,10000,9000,8000,단체 관람 시 할인,,,064-710-3415,제주특별자치도청 문화정책과,2018-07-03,6500000,제주특별자치도,
제주돌박물관,사립,제주특별자치도 제주시 조천읍 남조로 2023,,33.4486627,126.6589493,064-710-7731,제주돌문화공원,http://www.jeju.go.kr/jejustonepark/index.htm,,09:00,18:00,09:00,18:00,매월 첫째주 월요일,5000,3500,0,단체 관람 시 할인,,,064-710-3415,제주특별자치도청 문화정책과,2018-07-03,6500000,제주특별자치도,
제주건강과 성 박물관,사립,제주특별자치도 서귀포시 안덕면 일주서로 1611,,33.2546582,126.3467011,064-792-5700,(주)에스메카,http://www.sexmuseum.or.kr/,,09:00,20:00,09:00,20:00,연중무휴,12000,0,0,단체 관람 시 할인,,,064-710-3415,제주특별자치도청 문화정책과,2018-07-03,6500000,제주특별자치도,
파파월드,사립,제주특별자치도 제주시 애월읍 평화로 2157,,33.412352,126.3904153,064-799-7272,파파월드,https://blog.naver.com/papaworld88,,10:00,18:00,10:00,18:00,연중무휴,13000,13000,18000,,,,064-710-3415,제주특별자치도청 문화정책과,2018-07-03,6500000,제주특별자치도,
해녀박물관,사립,제주특별자치도 제주시 구좌읍 해녀박물관길 26,,33.5230497,126.8628483,064-782-9898,해녀박물관,http://www.jeju.go.kr/haenyeo/index.htm,,09:00,18:00,09:00,18:00,1월1일. 설날. 추석. 매월 첫째. 셋째 월요일,1100,500,0,단체 관람 시 할인,,,064-710-3415,제주특별자치도청 문화정책과,2018-07-03,6500000,제주특별자치도,
세계자동차 제주박물관,사립,제주특별자치도 서귀포시 안덕면 중산간서로 1610,,33.2831948,126.349772,064-792-3000,세계자동차 제주박물관,http://www.koreaautomuseum.com/,,09:00,18:00,09:00,18:00,연중무휴,11000,10000,10000,단체 관람 시 할인,,,064-710-3415,제주특별자치도청 문화정책과,2018-07-03,6500000,제주특별자치도,
테마공원 선녀와나무꾼,사립,제주특별자치도 제주시 조천읍 선교로 267,,33.4791256,126.7013044,064-784-9004,테마공원 선녀와나무꾼,http://www.namuggun.com/,,08:30,18:00,08:30,18:00,연중무휴,11000,9000,8000,단체 관람 시 할인,,,064-710-3415,제주특별자치도청 문화정책과,2018-07-03,6500000,제주특별자치도,
조안베어뮤지엄,사립,제주특별자치도 서귀포시 대포로 113,,33.2402854,126.4342037,064-739-1024,조안베어뮤지엄,http://www.joannestudio.co.kr/,,09:00,18:00,09:00,18:00,연중무휴,5000,4000,3000,도민할인,,,064-710-3415,제주특별자치도청 문화정책과,2018-07-03,6500000,제주특별자치도,
김만덕기념관,공립,제주특별자치도 제주시 산지로 7(건입동),,33.5159804,126.5304208,064-759-6090,김만덕기념관,http://www.mandukmuseum.or.kr/,,09:00,18:00,09:00,18:00,1월1일. 설날. 추석. 매주 월요일,0,0,0,,,,064-710-3415,제주특별자치도청 문화정책과,2018-07-03,6500000,제주특별자치도,
초콜릿 박물관,사립,제주특별자치도 서귀포시 대정읍 일주서로3000번길 144 대정농공단기 내,,33.2576761,126.2287876,064-792-3121,초콜릿 박물관,http://www.chocolatemuseum.org/,,10:30,18:00,10:30,18:00,연중무휴,6000,0,4000,,,,064-710-3415,제주특별자치도청 문화정책과,2018-07-03,6500000,제주특별자치도,
곰완구전시관 (테디베어뮤지엄),사립,제주특별자치도 서귀포시 중문관광로110번길 31 중문관광단지내,,33.2486522,126.4124374,064-738-7600,테디베어뮤지엄,http://www.teddybearmuseum.com/museums/jeju/,,09:00,19:00,09:00,19:00,연중무휴,10000,9000,8000,단체 관람 시 할인,,,064-710-3415,제주특별자치도청 문화정책과,2018-07-03,6500000,제주특별자치도,
제주유리박물관,사립,제주특별자치도 서귀포시 중산간서로 1403,,33.278578,126.3702742,064-792-6262,제주유리박물관,http://www.glassmuseum.co.kr/main.php,,10:00,21:00,10:00,21:00,연중무휴,9000,8000,7000,단체 관람 시 할인,,,064-710-3415,제주특별자치도청 문화정책과,2018-07-03,6500000,제주특별자치도,
제주4.3 평화기념관,사립,제주특별자치도 제주시 명림로 430,,33.4505801,126.6181207,064-710-8435,제주4.3평화재단,http://jejupark43.1941.co.kr/,,09:00,18:00,09:00,18:00,매월 첫째. 셋째 월요일,0,0,0,,,,064-710-3415,제주특별자치도청 문화정책과,2018-07-03,6500000,제주특별자치도,
설문대여성문화센터여성역사문화전시관,공립,제주특별자치도 제주시 선덕로8길 12,,33.4844207,126.500595,064-710-4246,설문대여성문화센터,http://www.jeju.go.kr/swcenter/index.htm,,09:00,18:00,09:00,18:00,연중무휴,0,0,0,,,,064-710-3415,제주특별자치도청 문화정책과,2018-07-03,6500000,제주특별자치도,
세계조가비박물관,사립,제주특별자치도 서귀포시 태평로 284,,33.2474572,126.551644,064-762-5551,세계조가비박물관,http://www.wsmuseum.co.kr/,,08:30,19:00,08:30,19:00,연중무휴,6000,5000,4000,단체 관람 시 할인,,,064-710-3415,제주특별자치도청 문화정책과,2018-07-03,6500000,제주특별자치도,
메이즈 뮤지움,사립,제주특별자치도 제주시 구좌읍 비자림로 2134-47,,33.488752,126.8009299,064-784-3838,메이즈랜드,http://www.mazeland.co.kr/,,09:00,18:00,09:00,18:00,연중무휴,11000,9000,8000,단체 관람 시 할인,,,064-710-3415,제주특별자치도청 문화정책과,2018-07-03,6500000,제주특별자치도,
다희연 티 뮤지엄,사립,제주특별자치도 제주시 조천읍 선교로 117,,33.4868918,126.7068136,064-782-0005,다희연,http://www.daheeyeon.com/,,09:00,18:00,09:00,18:00,연중무휴,5000,3000,0,단체 관람 시 할인,,,064-710-3415,제주특별자치도청 문화정책과,2018-07-03,6500000,제주특별자치도,
제주해양과학관 (아쿠아플라넷),사립,제주특별자치도 서귀포시 성산읍 섭지코지로 93-15,,33.4345727,126.9263432,064-780-0900,한화,http://www.aquaplanet.co.kr/jeju/index.jsp,,10:00,19:00,10:00,19:00,연중무휴,40900,39200,37200,단체 관람 시 할인,,,064-710-3415,제주특별자치도청 문화정책과,2018-07-03,6500000,제주특별자치도,
SOS박물관,사립,제주특별자치도 서귀포시 월드컵로 31,,33.2472388,126.5092079,064-738-1448,(주)피오디코리아,http://seriworld.co.kr/index.php?mid=KR03,,09:00,18:00,09:00,18:00,연중무휴,12000,10000,8000,,,,064-710-3415,제주특별자치도청 문화정책과,2018-07-03,6500000,제주특별자치도,
본태박물관,사립,제주특별자치도 서귀포시 안덕면 산록남로762번길 69,,33.3037917,126.3923999,064-792-8108,본태박물관,http://www.bontemuseum.com/,,10:00,18:00,10:00,18:00,연중무휴,20000,14000,12000,단체 관람 시 할인,,,064-710-3415,제주특별자치도청 문화정책과,2018-07-03,6500000,제주특별자치도,
넥슨컴퓨터 박물관,사립,제주특별자치도 제주시 1100로 3198-8,,33.4720996,126.485864,064-745-1994,NXCL,http://www.nexoncomputermuseum.org/,,10:00,18:00,10:00,18:00,매주 월요일. 설날. 추석,8000,7000,6000,도민할인,,,064-710-3415,제주특별자치도청 문화정책과,2018-07-03,6500000,제주특별자치도,
헬로키티아일랜드,사립,제주특별자치도 서귀포시 안덕면 한창로 340,,33.2902193,126.3498521,064-792-6114,㈜제이콥 씨앤이,http://www.hellokittyisland.co.kr/index.asp,,09:00,18:00,09:00,18:00,연중무휴,14000,13000,11000,단체 관람 시 할인,,,064-710-3415,제주특별자치도청 문화정책과,2018-07-03,6500000,제주특별자치도,
제주항공우주박물관,사립,제주특별자치도 서귀포시 안덕면 녹차분재로 218,,33.304846,126.299720,064-800-2009,JDC,https://www.jdc-jam.com/index.jam,,09:00,18:00,09:00,18:00,매월 셋째주 월요일,10000,9000,8000,단체 관람 시 할인,,,064-710-3415,제주특별자치도청 문화정책과,2018-07-03,6500000,제주특별자치도,
한울랜드뮤지엄,사립,제주특별자치도 제주시 구좌읍 동백로 458,,33.4966373,126.7509617,064-783-5788,한울랜드,http://hanulland.co.kr/,,08:30,18:00,08:30,18:00,연중무휴,9000,7000,7000,단체 관람 시 할인,,,064-710-3415,제주특별자치도청 문화정책과,2018-07-03,6500000,제주특별자치도,
세계오지민속박물관 (베니스랜드),사립,제주특별자치도 서귀포시 성산읍 서성일로 474,,33.414387,126.840490,064-784-6565,베니스랜드,http://theveniceland.com/,,09:00,18:00,09:00,18:00,연중무휴,12000,10000,8000,단체 관람 시 할인,,,064-710-3415,제주특별자치도청 문화정책과,2018-07-03,6500000,제주특별자치도,
제주커피박물관 바움,사립,제주특별자치도 서귀포시 성산읍 서성일로 1168번길 89-17,,33.4398006,126.8991174,064-784-2255,바움,http://jejubaum.com/,,09:00,18:00,09:00,18:00,연중무휴,0,0,0,,,,064-710-3415,제주특별자치도청 문화정책과,2018-07-03,6500000,제주특별자치도,
닥종이인형박물관,사립,제주특별자치도 서귀포시 월드컵로 33,,33.2472388,126.5092079,064-739-3906,닥종이인형박물관,http://cafe.naver.com/dakpaper,,09:00,19:00,09:00,19:00,연중무휴,5000,4000,3000,단체 관람 시 할인,,,064-710-3415,제주특별자치도청 문화정책과,2018-07-03,6500000,제주특별자치도,
세계술박물관,사립,제주특별자치도 서귀포시 표선면 한마음초등로 431,,33.353959,126.817669,064-787-9500,세계술박물관,https://www.worlm.co.kr/,,09:00,18:00,09:00,18:00,연중무휴,5000,4000,2000,단체 관람 시 할인,,,064-710-3415,제주특별자치도청 문화정책과,2018-07-03,6500000,제주특별자치도,
기당미술관,공립,제주특별자치도 서귀포시 남성중로 153번길 15,,33.2446568,126.5517975,064-733-1586,기당미술관,http://culture.seogwipo.go.kr/gidang/,,09:00,18:00,09:00,18:00,매주 월요일. 설날. 추석. 1월1일,1000,500,300,단체 관람 시 할인,,,064-710-3415,제주특별자치도청 문화정책과,2018-07-03,6500000,제주특별자치도,
이중섭미술관,공립,제주특별자치도 서귀포시 이중섭로 27-3,,33.2459155,126.5649489,064-760-3567,이중섭미술관,http://culture.seogwipo.go.kr/jslee/,,09:00,18:00,09:00,18:00,매주 월요일. 설날. 추석. 1월1일,1500,800,400,단체 관람 시 할인,,,064-710-3415,제주특별자치도청 문화정책과,2018-07-03,6500000,제주특별자치도,
김영갑갤러리 (두모악),사립,제주특별자치도 서귀포시 성산읍 삼달로 137,,33.3720645,126.8541795,064-784-9905,두모악,http://www.dumoak.com/,,09:30,18:00,09:30,18:00,매주 수요일. 설날. 추석. 1월1일,4500,3000,1500,도민할인,,,064-710-3415,제주특별자치도청 문화정책과,2018-07-03,6500000,제주특별자치도,
자연사랑 미술관,사립,제주특별자치도 서귀포시 표선면 가시로613번길 46,,33.3554682,126.7714844,064-787-3110,자연사랑,http://hallaphoto.com/default/,,10:00,18:00,10:00,18:00,연중무휴,0,0,0,도민할인,,,064-710-3415,제주특별자치도청 문화정책과,2018-07-03,6500000,제주특별자치도,
러브랜드 미술관,사립,제주특별자치도 제주시 1100로 2894-72,,33.4519922,126.4890053,064-712-6988,러브랜드,http://www.jejuloveland.com/,,09:00,24:00,09:00,24:00,연중무휴,12000,0,0,단체 관람 시 할인,,,064-710-3415,제주특별자치도청 문화정책과,2018-07-03,6500000,제주특별자치도,
제주 현대미술관,공립,제주특별자치도 제주시 한경면 저지14길 35 외 3필지,,33.339667,126.265671,064-710-7801,제주 현대미술관,http://jejumuseum.go.kr/kor/,,09:00,18:00,09:00,18:00,매주 월요일. 설날. 추석. 1월1일,2000,1000,500,단체 관람 시 할인,,,064-710-3415,제주특별자치도청 문화정책과,2018-07-03,6500000,제주특별자치도,
돌하르방공원,사립,제주특별자치도 제주시 조천읍 북촌서1길 70,,33.5387743,126.6887213,064-782-0570,북촌돌하르방공원,https://www.facebook.com/dolharbangpark,,09:00,18:00,09:00,18:00,연중무휴,6000,4000,0,,,,064-710-3415,제주특별자치도청 문화정책과,2018-07-03,6500000,제주특별자치도,
포레스트판타지아,사립,제주특별자치도 서귀포시 안덕면 일주서로 1836,,33.256807,126.321633,064-794-9680,제주조각공원,http://forestfantasia.com/,,09:00,24:00,09:00,24:00,연중무휴,15000,13000,10000,전일권. 주간권 별도,,,064-710-3415,제주특별자치도청 문화정책과,2018-07-03,6500000,제주특별자치도,
제주도립 김창열미술관,공립,제주특별자치도 제주시 한림읍 용금로 883-5,,33.3389037,126.2682351,064-710-4141,제주도립 김창열미술관,http://kimtschang-yeul.jeju.go.kr/,,09:00,18:00,09:00,18:00,매주 월요일. 설날. 추석. 1월1일,2000,1000,500,단체 관람 시 할인,,,064-710-3415,제주특별자치도청 문화정책과,2018-07-03,6500000,제주특별자치도,
제주 유리의 성,사립,제주특별자치도 제주시 한경면 녹차분재로 462,,33.3148365,126.2734488,064-772-7777,제주 유리의 성,http://www.jejuglasscastle.com/,,09:00,19:00,09:00,19:00,연중무휴,11000,9000,8000,단체 관람 시 할인,,,064-710-3415,제주특별자치도청 문화정책과,2018-07-03,6500000,제주특별자치도,
소암기념관,공립,제주특별자치도 서귀포시 물동산길 22,제주특별자치도 서귀포시 서귀동 157-2,33.245175,126.567688,064-760-3511,소암기념관,http://culture.seogwipo.go.kr/soam/,,09:00,18:00,09:00,18:00,매주 월요일. 설날. 추석. 1월1일,0,0,0,,,,064-710-3415,제주특별자치도청 문화정책과,2018-07-03,6500000,제주특별자치도,
제주 도립미술관,공립,제주특별자치도 제주시 1100로 2894-78,,33.4526324,126.4896073,064-710-4300,제주 도립미술관,http://jmoa.jeju.go.kr/kor/,,09:00,18:00,09:00,18:00,매주 월요일. 설날. 추석. 1월1일,2000,1000,500,단체 관람 시 할인,,,064-710-3415,제주특별자치도청 문화정책과,2018-07-03,6500000,제주특별자치도,
제주추사관,공립,제주특별자치도 서귀포시 대정읍 추사로 44,,33.249837,126.2786308,064-710-6803,제주추사관,http://www.jeju.go.kr/chusa/index.htm,,09:00,18:00,09:00,18:00,매주 월요일. 설날. 추석. 1월1일,0,0,0,단체 관람 시 할인,,,064-710-3415,제주특별자치도청 문화정책과,2018-07-03,6500000,제주특별자치도,
박물관은살아있다,사립,제주특별자치도 서귀포시 중문관광로 42,,33.2549224,126.4087187,064-805-0888,크리에이티브통,http://www.alivemuseum.com/branch/jeju,,09:00,21:30,09:00,21:30,연중무휴,12000,11000,10000,단체 관람 시 할인,,,064-710-3415,제주특별자치도청 문화정책과,2018-07-03,6500000,제주특별자치도,
그리스신화박물관,사립,제주특별자치도 제주시 한림읍 광산로 942,,33.347722,126.3568108,064-773-5800,그리스신화박물관,http://www.greekmythology.co.kr/default/,,09:00,18:00,09:00,18:00,연중무휴,9000,8000,8000,단체 관람 시 할인,,,064-710-3415,제주특별자치도청 문화정책과,2018-07-03,6500000,제주특별자치도,
왈종미술관,사립,제주특별자치도 서귀포시 칠십리로214번길 30,,33.2452223,126.5738961,064-763-3600,재단법인 왈종후연미술문화재단,http://walartmuseum.or.kr/,,10:00,18:00,10:00,18:00,1월1일,5000,3000,3000,단체 관람 시 할인,,,064-710-3415,제주특별자치도청 문화정책과,2018-07-03,6500000,제주특별자치도,
성안미술관,사립,제주특별자치도 제주시 중앙로 470,,33.4811852,126.5426318,064-729-9175,제주성안교회,http://cafe.daum.net/seongahnart,,10:00,18:00,10:00,18:00,매주 월요일. 국경일,0,0,0,,,,064-710-3415,제주특별자치도청 문화정책과,2018-07-03,6500000,제주특별자치도,
아라리오뮤지엄,사립,제주특별자치도 제주시 탑동로 14,,33.5174219,126.5234393,064-720-8250,아라리오뮤지엄,http://www.arariomuseum.org/main.php,,10:00,19:00,10:00,19:00,매주 월요일,10000,6000,4000,도민할인,,,064-710-3415,제주특별자치도청 문화정책과,2018-07-03,6500000,제주특별자치도,
유인미술관,사립,제주특별자치도 서귀포시 성산읍 고성리 21,,33.4291727,126.9300971,064-731-7791,휘닉스중앙제주,http://www.yuminart.org/,,09:00,18:00,09:00,18:00,매주 화요일,12000,9000,9000,도민할인,,,064-710-3415,제주특별자치도청 문화정책과,2018-07-03,6500000,제주특별자치도,
경북대학교 박물관,대학,대구광역시 북구 대학로 80(산격동),대구광역시 북구 산격동 1370,35.8887118,128.613693,053-950-6537,경북대학교,http://museum.knu.ac.kr/,기획전시실+상설전시실+야외전시장+자료정리실+보존과학실+도서실+시청각실+수장실,10:00,17:00,00:00,00:00,"토(둘째, 넷째), 일요일 및 공휴일,개교기념일(5월 28일)",0,0,0,일반인 관람 가능,"1959년 개관 이래 유물의 수집과 보존, 전시, 연구 등을 통하여 대구 경북지역의 중축적인 문화시설로서 그 역할을 수행하여 왔음","버스:북문정차(300, 306, 410, 410-1, 523, 706, 719, 급행6), 정문정차(410,410-1, 503, 937, 동구2, 북구2), 서문정차(304, 306, 403, 410, 523, 623, 급행6, 순환2-1)+지하철:1호선 칠성역서운프라자 출구, 신천역 5번 출구",053-803-3740,대구광역시,2018-02-19,3450000,대구광역시 북구,
대구보건대학교 인당박물관,대학,대구광역시 북구 영송로 15(태전동),대구광역시 북구 태전동 산 6-6,35.9285673,128.5435311,053-320-1857,대구보건대학교,http://indangmuseum.dhc.ac.kr/,제1전시실+제2전시실+제3전시실+제4전시실+제5전시실+야외전시장,10:00,17:00,00:00,00:00,"공휴일, 토요일, 일요일 휴관 / 전시 기간 중 월요일 휴관",0,0,0,일반인 관람 가능,"개관 이래 유물의 수집과 보존, 전시 등을 통해 전통문화를 계승하고 있으며, 매년 봄 가을 2차례 특별전을 개최하여 지역민들에게 가치있는 문화를 향유할 수 있는 기회를 제공하고자 노력하고 있음","버스: 724, 750, 726, 527, 704, 급행3",053-803-3740,대구광역시,2018-02-19,3450000,대구광역시 북구,
경북대학교 미술관,대학,대구광역시 북구 대학로 80(산격동),대구광역시 북구 산격동 1370,35.8925724,128.6098044,053-950-7968,경북대학교,http://artmuseum.knu.ac.kr,제1전시실+제2전시실+제3전시실,10:00,18:00,00:00,00:00,"월요일, 일요일 및 국정공휴일",0,0,0,기획전 또는 특별전의 경우 관람료가 책정될 수 있음,지역 최초로 설립된 대학미술관이자 공공미술관으로 전시 및 다양한 학술행사와 교육프로그램을 개발 운영하고 있음,"버스:북문정차(300, 306, 410, 410-1, 523, 706, 719, 급행6), 정문정차(410,410-1, 503, 937, 동구2, 북구2), 서문정차(304, 306, 403, 410, 523, 623, 급행6, 순환2-1)+지하철:1호선 칠성역서운프라자 출구, 신천역 5번 출구",053-803-3740,대구광역시,2018-02-19,3450000,대구광역시 북구,
백제문화체험박물관,공립,충청남도 청양군 대치면 장곡길 43-24,충청남도 청양군 대치면 장곡리153-5,36.405991,126.845497,041-940-4871,충청남도 청양군,http://www.cheongyang.go.kr/museum.do,,09:00,17:00,09:00,17:00,"1월1일, 설날, 추석,매주월요일(단 월요일이 공휴일인 경우 다음날)",2000,1500,1000,단체20인이상 500원 인하,백제시대 두 수도의 배후도시였던 청양지역의 역사와 문화를 한눈에 볼수 있으며 다양한 체험을 할수 있는 곳,,041-940-2491,충청남도 청양군청,2018-08-09,4590000,충청남도 청양군,
계명대학교 행소박물관,대학,대구광역시 달서구 달구벌대로 1095,대구광역시 달서구 신당동 1000-2,35.85355716,128.4814952,053-580-6992,행소박물관,http://www.hengsomuseum.com/,카페+시청각실,10:00,17:00,10:00,17:00,매주 일요일,0,0,0,,"경북내륙지역에 신석기시대부터 조선시대에 이르는 다양한 유물을 발굴조사 및 연구를 수행했으며, 특히 가야사 복원연구에 심혈을 기울였음","버스:급행1, 달서2, 달서3, 성서1, 성서1-1, 성서2, 425, 503, 508, 521, 527, 564, 655+지하철:2호선 계명대역(도보7분)",053-667-2194,대구광역시 달서구청,2018-02-28,3470000,대구광역시 달서구,
소래역사관,공립,인천광역시 남동구 아암대로 1605,인천광역시 남동구 논현동 680-2,37.3986024,126.7372037,032-460-0591,남동구도시관리공단,http://museum.namdongcmc.co.kr/,http://museum.namdongcmc.co.kr/contents/cnt_0204.asp,10:00,18:00,10:00,18:00,매주 월요일(월요일이 공휴일인 경우 그 다음날) / 1월1일 / 설날 및 추석 당일,500,300,200,"단체 어른300원, 청소년200원, 어린이100원, 65세 이상, 6세 미만, 국가유공자, 기초수급자, 1~3급장애인,  그린카드 소지자 등 무료",http://museum.namdongcmc.co.kr/contents/cnt_0101.asp,http://museum.namdongcmc.co.kr/contents/cnt_0104.asp,032-453-2133,인천광역시 남동구,2018-08-10,3530000,인천광역시 남동구,
애보박물관,사립,인천광역시 남동구 만의골로 71,인천광역시 남동구 운연동 2 인천공예미술박물관,37.4503884,126.7670568,032-466-3181,애보박물관,www.aebo.co.kr,http://www.aebo.co.kr/,09:30,18:00,09:30,18:00,"1월 1일, 설연휴, 추석연휴, 일요일",2500,2000,1500,"장애인, 노인 50",http://www.aebo.co.kr/about/greeting.php,http://www.aebo.co.kr/about/map.php,032-466-3181,애보박물관,2018-08-10,3530000,인천광역시 남동구,
한국전통음식박물관,사립,인천광역시 남동구 만의골로 71,인천광역시 남동구 운연동 2 인천공예미술박물관,37.4503884,126.7670568,032-466-3181,한국전통음식박물관,blog.naver.com/kfoodmuseum,https://blog.naver.com/kfoodmuseum,09:30,18:00,09:30,18:00,"1월 1일, 설연휴, 추석연휴, 일요일",2500,2000,1500,"장애인, 노인 50",blog.naver.com/kfoodmuseum,http://www.aebo.co.kr/about/map.php,032-466-3181,한국전통음식박물관,2018-08-10,3530000,인천광역시 남동구,
규남박물관,사립,전라남도 화순군 이서면 백아로 3109,전라남도 화순군 이서면 야사리 164,35.110024,127.080017,070-4233-9060,규남박물관,,전시실+사무실+자료실+수장고,10:00,16:30,10:00,16:30,동절기(12월~3월) 휴관,0,0,0,,"2011년 11.1개관,2012.4.4.박물관 등록",,061-379-3512,전라남도 화순군청,2018-07-01,4900000,전라남도 화순군,
다산미술관,사립,전라남도 화순군 남면 다공길 25,전라남도 화순군 남면 다산리 455,35.023337,127.126387,061-371-3443,다산미술관,http://www.gyunammuseum.org,전시실+사무실+연구실+자료실+도서실+시청각실+야외체험장,10:00,17:00,00:00,00:00,공휴일 및 월요일,0,0,0,,"2011.4.8개관, 2006.1.10미술관 등록",,061-379-3512,전라남도 화순군청,2018-07-01,4900000,전라남도 화순군,
소소미술관,사립,전라남도 화순군 도곡면 지강로 467-1,전라남도 화순군 도곡면 원화리 304,35.035937,126.905588,061-375-1995,소소미술관,http://blog.naver.com/dasan_art1,전시실+작업실+사무실+도서실+강당+준비실+카페,10:00,21:00,10:00,21:00,없음,0,0,0,,"2014.8.1개관, 2014.10.17미술관 등록",,061-379-3512,전라남도 화순군청,2018-07-01,4900000,전라남도 화순군,
소아르미술관,사립,전라남도 화순군 화순읍 화보로 4439-10,전라남도 화순군 화순읍 이십곡리 601-12,35.075493,126.959489,061-371-8585,소아르미술관,http://soartmuse.blog.me,전시실+작업실+사무실+시청각실+카페+식당,10:00,18:00,10:00,18:00,매주 월요일,0,0,0,,"2009.12.21개관, 2017.1.24 미술간 등록",,061-379-3512,전라남도 화순군청,2018-07-01,4900000,전라남도 화순군,
교동아트미술관,사립,전라북도 전주시 완산구 경기전길89,,35.8154620,127.1511530,063-287-1245,교동아트미술관,http://www.gdart.co.kr/,,10:00,19:00,10:00,19:00,월요일,0,0,0,,,,063-287-1245,교동아트미술관,2018-07-10,6450000,전라북도,
전주미술관,사립,전라북도 전주시 완산구 기린대로 85 르윈호텔 B1,,35.8171560,127.1540040,063-283-8887,전주미술관,http://www.jeonjumuseum.com,,10:00,18:00,10:00,18:00,월요일,4000,2400,1800,,,,063-283-8887,전주미술관,2018-07-10,6450000,전라북도,
누벨벡미술관,사립,전라북도 전주시 완산구 홍산북로 29-5,,35.8178875,127.1049278,063-222-7235,누벨벡미술관,http://blog.naver.com/sheen1711/220916891261,,10:30,18:30,00:00,00:00,"월요일, 공휴일",0,0,0,,,,063-222-7235,누벨벡미술관,2018-07-10,6450000,전라북도,
예깊미술관,사립,전라북도 군산시 대학로 64 에이팩스 빌딩 2층,,35.9847780,126.7095940,063-911-2207,예깊미술관,http://www.yegip.co.kr/,,10:00,18:00,10:00,18:00,"월요일, 일요일",0,0,0,,,,063-911-2207,예깊미술관,2018-07-10,6450000,전라북도,
이당미술관,사립,전라북도 군산시 구영 6길 108번지,,35.9884040,126.7112500,063-446-5903,이당미술관,http://yidang.org/,,10:00,18:00,10:00,18:00,"월요일, 화요일",0,0,0,,,,063-446-5903,이당미술관,2018-07-10,6450000,전라북도,
익산예술의전당 미술관,공립,전라북도 익산시 동서로 490,,35.9519580,126.9878150,1577-0072,전라북도 익산시,http://arts.iksan.go.kr,카페+식당,09:00,22:00,09:00,22:00,"매주월요일, 설날 및 추석당일, 행사 없는날, 1월1일",0,0,0,,,,063-859-3317,익산예술의전당 미술관,2018-07-10,6450000,전라북도,
W미술관,사립,전라북도 익산시 어양동 동서로 504,,35.9555080,126.9842620,063-835-3033,W미술관,http://blog.naver.com/museumw,,10:00,18:00,10:00,18:00,월요일,0,0,0,,,,063-835-3033,W미술관,2018-07-10,6450000,전라북도,
정읍시립미술관,공립,전라북도 정읍시 시기 4길 7,,35.5523265,126.8614731,063-539-7114,전라북도 정읍시,http://jma.jeongeup.go.kr/,,10:00,18:00,10:00,18:00,월요일,0,0,0,,,,063-539-6420,정읍시립미술관,2018-07-10,6450000,전라북도,
수지미술관,사립,전라북도 남원시 수지면 물머리로 525,,35.3272580,127.3478100,063-631-1009,수지미술관,http://sujimuseum.com/,,10:00,18:00,10:00,18:00,월요일,3000,2000,2000,,,,063-631-1009,수지미술관,2018-07-10,6450000,전라북도,
예가람길 미술관,사립,전라북도 남원시 동헌길 84,,35.4077170,127.3810080,063-632-0080,예가람길 미술관,,,10:00,19:00,10:00,19:00,"월요일, 일요일, 국경일",0,0,0,,,,063-632-0080,예가람길 미술관,2018-07-10,6450000,전라북도,
전라북도도립미술관,공립,전라북도 완주군 구이면 모악산길 111-6,,35.7277090,127.1069390,063-280-2114,전라북도청,http://www.jma.go.kr,,10:00,18:00,10:00,18:00,"월요일, 1월1일, 명절",0,0,0,,,,063-290-6888,전라북도도립미술관,2018-07-10,6450000,전라북도,
VM(비주얼 미디어)아트 미술관,사립,전라북도 완주군 삼례읍 삼례역로 81-13,,35.9062419,127.0662406,070-8915-8123,VM(비주얼 미디어)아트 미술관,www.srartvil.kr,,10:00,18:00,10:00,18:00,"1월1일, 월요일",0,0,0,,,,070-8915-8123,VM(비주얼 미디어)아트 미술관,2018-07-10,6450000,전라북도,
최북미술관,공립,전라북도 무주군 무주읍 최북로 15,,36.0030223,127.6652920,063-320-2114,전라북도 무주군,http://tour.muju.go.kr/art/index.do,,09:00,18:00,09:00,18:00,"1월1일, 월요일, 명절 당일",0,0,0,,,,063-320-5636,최북미술관,2018-07-10,6450000,전라북도,
금구원야외조각미술관,사립,전라북도 부안군 변산면 조각공원길 31,,35.6206220,126.4888609,063-584-6770,금구원야외조각미술관,,,08:00,17:00,08:00,17:00,연중무휴,2000,2000,1000,,,,063-584-6774,금구원야외조각미술관,2018-07-10,6450000,전라북도,
휘목미술관,사립,전라북도 부안군 진서면 운호길 10,,35.5943974,126.5635292,063-584-0006,휘목미술관,http://www.hmarttown.com,,10:00,18:00,10:00,18:00,"1월1일, 매월 첫번째 월요일",0,0,0,,,,063-584-0006,휘목미술관,2018-07-10,6450000,전라북도,
국립전주박물관,공립,전라북도 전주시 완산구 쑥고개로 249,,35.8013325,127.0897170,063-223-5651,국립전주박물관,http://mjeonju.museum.go.kr,뮤지엄샵+문화사랑방+아기방+강당+세미나실+카페,10:00,18:00,10:00,18:00,"1월1일, 설날, 추석날",0,0,0,,,,063-223-5651,국립전주박물관,2018-07-10,6450000,전라북도,
미륵사지유물전시관,공립,전라북도 익산시 금마면 미륵사지로 362,,36.0115080,127.0286000,063-830-0900,미륵사지유물전시관,http://iksan.museum.go.kr,,10:00,18:00,10:00,18:00,"1월1일, 설날, 추석, 매주 월요일",0,0,0,,,,063-830-0900,미륵사지유물전시관,2018-07-10,6450000,전라북도,
전주역사박물관,공립,전라북도 전주시 완산구 쑥고개로 259,,35.8011595,127.0933583,063-228-6485,전주문화연구회,http://www.jeonjumuseum.org/,,09:00,18:00,09:00,18:00,"1월1일, 월요일",0,0,0,,,,063-222-1000,전라북도 전주시,2018-07-10,6450000,전라북도,
익산보석박물관,공립,전라북도 익산시 왕궁면 호반로 8,,35.9906601,127.1025892,063-859-4641,익산보석박물관,http://www.jewelmuseum.go.kr/,,10:00,18:00,10:00,18:00,"1월1일, 월요일",3000,2000,1000,,,,063-859-4641,익산보석박물관,2018-07-10,6450000,전라북도,
남원향토박물관,공립,전라북도 남원시 양림길 14-9,,35.4017971,127.3870909,063-620-6792,남원향토박물관,,,09:00,18:00,09:00,18:00,월요일,3000,2500,2000,,,,063-620-6792,남원향토박물관,2018-07-10,6450000,전라북도,
벽골제농경문화박물관,공립,전라북도 김제시 부량면 벽골제로 442,,35.7546256,126.8531044,063-540-4989,벽골제농경문화박물관,,,09:00,18:00,09:00,18:00,"1월1일, 월요일",0,0,0,,,,063-540-4989,벽골제농경문화박물관,2018-07-10,6450000,전라북도,
고창판소리박물관,공립,전라북도 고창군 고창읍 동리로 100,,35.4324321,126.7027174,063-560-8061,고창판소리박물관,http://pansorimuseum.gochang.go.kr/,,09:00,18:00,09:00,18:00,"1월1일, 설날, 추석, 매주 월요일",800,500,0,,,,063-560-8061,고창판소리박물관,2018-07-10,6450000,전라북도,
전주전통술박물관,공립,전라북도 전주시 완산구 한지길 74,,35.8170501,127.1535397,063-287-6305,전주전통술박물관,http://urisul.net/,,09:00,18:00,09:00,18:00,연중무휴,0,0,0,,,,063-287-6305,전주전통술박물관,2018-07-10,6450000,전라북도,
왕궁리유적전시관,공립,전라북도 익산시 왕궁면 궁성로 666,,35.9715881,127.0557217,063-859-4631,왕궁리유적전시관,http://www.iksan.go.kr/wg,,09:00,18:00,09:00,18:00,"1월 1일, 월요일",0,0,0,,,,063-859-4631,왕궁리유적전시관,2018-07-10,6450000,전라북도,
어진박물관,공립,전라북도 전주시 완산구 태조로 44,,35.8162368,127.1493531,063-231-0190,전주문화연구회,http://www.eojinmuseum.org/,,09:00,19:00,09:00,19:00,1월 1일,0,0,0,,,,063-222-1000,전라북도 전주시,2018-07-10,6450000,전라북도,
청자박물관,공립,전라북도 부안군 보안면 청자로 1493,,35.6114972,126.6513507,063-580-3964,청자박물관,http://www.buan.go.kr/buancela/index.buan,,10:00,18:00,10:00,18:00,"1월 1일, 월요일, 추석, 설날",3000,2000,1000,4D 영상실 3000원,,,063-580-3964,청자박물관,2018-07-10,6450000,전라북도,
군산근대역사박물관,공립,전라북도 군산시 해망로 240,,35.9908423,126.7120089,063-454-7870,군산근대역사박물관,http://museum.gunsan.go.kr,,09:00,18:00,09:00,18:00,1월 1일,3000,2000,1000,,,,063-454-7870,군산근대역사박물관,2018-07-10,6450000,전라북도,
동학농민혁명기념관,공립,전라북도 정읍시 덕천면 동학로 742,,35.6328630,126.8283102,063-536-1894,동학농민혁명기념관,http://www.1894.or.kr/main_kor/index.php,,09:00,18:00,09:00,18:00,"1월 1일, 월요일",0,0,0,,,,063-536-1894,동학농민혁명기념관,2018-07-10,6450000,전라북도,
전라북도산림박물관,공립,전라북도 순창군 복흥면 추령로 1777,,35.4771412,126.9257287,063-652-6792,전라북도산림박물관,http://jbfm.jb.go.kr/,,09:00,18:00,09:00,18:00,"1월 1일, 월요일, 추석",0,0,0,,,,063-652-6792,전라북도산림박물관,2018-07-10,6450000,전라북도,
진안역사박물관,공립,전라북도 진안군 진안읍 내사양길 7,,35.7724537,127.4167470,063-430-8086,진안역사박물관,http://www.jinanmuseum.kr/,,09:00,18:00,09:00,18:00,월요일,0,0,0,,,,063-430-8086,진안역사박물관,2018-07-10,6450000,전라북도,
익산 마한박물관,공립,전라북도 익산시 금마면 고도 9길 41-14,,36.0019572,127.0604036,063-859-4633,익산 마한박물관,http://www.iksan.go.kr/mahan/index.iksan,,09:00,18:00,09:00,18:00,"1월 1일, 월요일",0,0,0,,,,063-859-4633,익산 마한박물관,2018-07-10,6450000,전라북도,
정읍시립박물관,공립,전라북도 정읍시 내장산로 370-12,,35.5278764,126.8943986,063-539-6792,정읍시립박물관,http://museum.jeongeup.go.kr/,,09:00,18:00,09:00,18:00,"월요일, 1월 1일(신정), 설날, 추석날",0,0,0,,,,063-539-7114,전라북도 정읍시,2018-07-10,6450000,전라북도,
순창장류박물관,공립,전라북도 순창군 순창읍 장류로 43,,35.3696904,127.1109875,063-650-1627,순창장류박물관,,,09:00,18:00,09:00,18:00,"1월 1일, 월요일",0,0,0,,,,063-650-1629,전라북도 순창군,2018-07-10,6450000,전라북도,
원불교역사박물관,사립,전라북도 익산시 익산대로 501,,35.9744656,126.9516069,063-850-3240,원불교역사박물관,http://www.wonmuseum.net,,10:00,17:00,10:00,17:00,월요일,0,0,0,,,,063-850-3240,원불교역사박물관,2018-07-10,6450000,전라북도,
원숭이자연사박물관,사립,전라북도 부안군 상서면 부안로 1783,,35.6680960,126.6714060,063-584-0708,원숭이자연사박물관,http://www.monkeypark.co.kr,,10:00,18:00,10:00,18:00,무휴,7000,7000,7000,,,,063-584-0708,원숭이자연사박물관,2018-07-10,6450000,전라북도,
전주한지박물관,사립,전라북도 전주시 덕진구 팔복로 59,,35.8490333,127.1002406,063-210-8103,전주한지박물관,http://www.hanjimuseum.co.kr/,,09:00,17:00,09:00,17:00,"월요일, 1월 1일, 설 연휴, 추석연휴",0,0,0,,,,063-110-8103,전주한지박물관,2018-07-10,6450000,전라북도,
예수병원의학박물관,사립,전라북도 전주시 완산구 서원로 365,,35.8143917,127.1332292,063-230-8778,예수병원의학박물관,http://museum.jesushospital.com,,09:00,18:00,00:00,00:00,"일요일, 월요일, 법정 공휴일",0,0,0,,,,063-230-8778,예수병원의학박물관,2018-07-10,6450000,전라북도,
카메라영상박물관,사립,전라북도 완주군 소양면 신교응암길 14,,35.8530108,127.2065584,063-560-6600,카메라영상박물관,,,09:00,18:00,00:00,00:00,"일요일, 월요일, 법정 공휴일",0,0,0,,,,063-560-6600,카메라영상박물관,2018-07-10,6450000,전라북도,
연안이씨종중문적(보물651호)박물관,사립,전라북도 익산시 삼기면 기산리 332-1번지,,36.0252773,127.0162984,063-852-7277,연안이씨종중문적(보물651호)박물관,,,10:00,18:00,10:00,18:00,"1월 1일, 월요일, 추석, 설",3000,2000,1000,,,,063-852-7277,연안이씨종중문적(보물651호)박물관,2018-07-10,6450000,전라북도,
완주책박물관,사립,전라북도 완주군 삼례읍 후정리 247-1,,35.9061288,127.0661709,070-8915-8131,완주책박물관,http://www.srartvil.kr/index.9is?contentUid=ff8080813e5ec385013e5f16b934006d,,10:00,18:00,10:00,18:00,"1월 1일, 월요일",0,0,0,,,,070-8915-8131,완주책박물관,2018-07-10,6450000,전라북도,
전북대학교박물관,대학,전라북도 전주시 덕진구 백제대로 567,,35.8462574,127.1320049,063-270-3488,전북대학교박물관,http://museum.chonbuk.ac.kr/,,09:30,17:30,00:00,00:00,"공휴일, 일요일, 개교기념일(10월 15일)",0,0,0,,,,063-270-3488,전북대학교박물관,2018-07-10,6450000,전라북도,
전주대학교박물관,대학,전라북도 전주시 완산구 효자동3가 120,,35.8278271,127.0947355,063-220-2159,전주대학교박물관,http://museum.jeonju.ac.kr/,,09:00,17:00,00:00,00:00,"주말, 공휴일",0,0,0,,,,063-220-2159,전주대학교박물관,2018-07-10,6450000,전라북도,
군산대학교박물관,대학,전라북도 군산시 미룡동 1170,,35.9468638,126.6813489,063-469-4191,군산대학교박물관,http://museum.kunsan.ac.kr/,,10:00,17:00,00:00,00:00,"주말, 공휴일",0,0,0,,,,063-469-4191,군산대학교박물관,2018-07-10,6450000,전라북도,
원광대학교박물관,대학,전라북도 익산시 익산대로 460,,35.9678300,126.9557171,063-850-5482,원광대학교박물관,http://museum.wonkwang.ac.kr/,,10:00,16:00,00:00,00:00,"주말, 공휴일, 방학기간",0,0,0,,,,063-850-5482,원광대학교박물관,2018-07-10,6450000,전라북도,
일본군''위안부''역사관,사립,경기도 광주시 퇴촌면 가새골길 85,,37.444562,127.321562,031-768-0064,일본군''위안부''역사관,http://www.nanum.org,주차장+카페,10:00,17:00,10:00,17:00,매주 월요일,5000,3000,3000,"영상관람2,000원",일본군위안부피해자 문제 전시,광주터미널에서 택시이용,031-768-1545,나눔의집,2018-04-26,5540000,경기도 광주시,
영은미술관,사립,경기도 광주시 청석로 300,,37.414001,127.268622,031-761-0137,영은미술관,http://www.youngeunmuseum.org/,주차장+카페,10:00,18:00,10:00,18:00,매주 월요일+신정+구정,6000,4000,3000,개관기념일(11/4) 무료,"동시대 현대미술 작품을 소장, 전시하는 현대미술관과 국내 초유의 창작스튜디오를 커다란 두축으로 구성",광역버스 1113-1(강변역 출발),031-761-0137,영은미술관,2018-04-26,5540000,경기도 광주시,
닻미술관,사립,경기도 광주시 초월읍 진새골길 184,,37.383788,127.271245,031-798-2581,재단법인닻문화재단,http://www.datzmuseum.org/,주차장+카페테리아+멤버쉽 라운지,11:00,18:00,11:00,18:00,월+화요일+설+추석연휴+선거일,2000,1000,1000,"장애인, 문화가 있는 날 무료",2010년 개관한 사진과 현대미술 중심의 미술관. 체험학습을 위한 목공방과 유리온실 함께 운영,광역버스 1113-1(강변역 출발),031-798-2581,재단법인닻문화재단,2018-04-26,5540000,경기도 광주시,
만해기념관,사립,경기도 광주시 남한산성로792번길 24-7,,37.479384,127.180638,031-744-3100,만해기념관,http://www.manhae.or.kr,교육실+휴게실,10:00,16:00,10:00,16:00,매주 월요일+1월1일,2000,1000,1000,국가유공자무료,"다양한 만해선생 관련 자료와 연구서들이 체계적으로 수집,정리,연구 되는 명실상부한 만해연구의 도량이요 만해 정신을 선양하고 있는 사립박물관","지하철 8호선 산성역(2번 출구)-9번, 9-1번,52번 버스탑승 산성종점 하차",031-744-3100,만해기념관,2018-04-26,5540000,경기도 광주시,
사람박물관 얼굴,사립,경기도 광주시 남종면 분원길 3-6,,37.493941,127.302021,031-765-3522,사람박물관얼굴,http://visagej.org/,주차장,10:00,18:00,10:00,18:00,월+화요일,4000,3000,2000,"국가유공자, 장애인 무료","석인, 목각인형, 도자기 등과 우리나를 비롯한 세계 여러 나라의 도자인형과 유리로 된 인형, 사람의 얼굴을 본딴 와당과 가면 등 전시",13-2(강변역 출발),031-765-3522,사람박물관얼굴,2018-04-26,5540000,경기도 광주시,
풀짚공예박물관,사립,경기도 광주시 오포읍 문형산길 76,,37.3641982,127.1650975,031-717-4538,풀짚공예박물관,http://www.pulzip.com/,주차장,10:00,17:00,10:00,17:00,매주 월요일+구정 및 추석 전날과 당일,3000,1500,1500,만4세미만 무료,풀짚공예품 전시,"분당선 이매역 하차 119번, 17번 버스 이용 광명초등학교 앞에서 약700m",031-717-7538,풀짚공예박물관,2018-04-26,5540000,경기도 광주시,
백제군사박물관,공립,충청남도 논산시 부적면 충곡로 311-54,충청남도 논산시 부적면 신풍리 6,36.1921898,127.1804012,041-746-8432,충청남도 논산시청,http://museum.nonsan.go.kr/,매점+4D영상관+휠체어+물품보관소+전통놀이체험+자전거보관대,09:00,18:00,09:00,18:00,"매주월요일(단 월요일이 공휴일인 경우 당일은 개관하고 그 따음 첫번째 평일에 휴관), 1월 1일, 설날, 추석",0,0,0,무료,계백장군의 충절과 예학의 전통문화를 기리기 위해 2005년 개관 군사박물관,마을버스1일 8회 운행,041-746-8432,충청남도 논산시청,2018-02-13,4540000,충청남도 논산시,
세종특별자치시립 민속박물관,공립,세종특별자치시 전의면 금사길75,세종특별자치시 전의면 금사리 113-1번지,36.60908935,127.1706127,044-300-8831,세종특별자치시립 민속박물관,http://www.sejong.go.kr/tour/sub02_03_05_01.do,,09:00,18:00,09:00,18:00,"월요일 휴무, 1월1일, 설날및 추석명정달일",0,0,0,,,,044-300-8831,세종특별자치시,2018-08-01,5690000,세종특별자치시,
교과서박물관,사립,세종특별자치시 연동면 청연로 492-14,세종특별자치시 연동면 내판리152,36.54845293,127.3374851,044-300-8831,미래엔,http://www.sejong.go.kr/tour/sub02_03_05_02.do,,09:30,17:00,09:30,17:00,"월요일, 신정, 설날, 추석, 성탄설 휴무",0,0,0,,,,044-300-8831,미래엔,2018-08-01,5690000,세종특별자치시,
뒤웅박고을,사립,세종특별자치시 전동면 베일길 90-43,세종특별자치시 전동면 청송리 3,36.67572133,127.2592905,044-868-7007,뒤웅박고을,http://www.sejong.go.kr/tour/sub01_07.do,,10:00,18:00,10:00,17:30,"월요일, 설연휴, 추석연휴",0,0,0,,,,044-868-7007,뒤웅박고을,2018-08-01,5690000,세종특별자치시,
연기향토박물관,사립,세종특별자치시 연서면 양대길 34-4,세종특별자치시 연서면 청라리 146,36.59562583,127.2078284,044-862-7449,연기향토박물관,http://www.sejong.go.kr/tour/sub02_03_05_03.do,,09:00,18:00,09:00,18:00,"일요일, 설연휴, 추석연휴",3000,2000,0,,,,044-862-7449,세종특별자치시,2018-08-01,5690000,세종특별자치시,
산림박물관,공립,세종특별자치시 금남면 산림박물관길 110,세종특별자치시 금남면 도남리12-2,36.43769724,127.2327447,044-850-2686,산림박물관,http://www.sejong.go.kr/tour/sub01_05.do,,09:00,18:00,09:00,18:00,매월 첫번째 월요일 휴관,1500,1300,700,,,,044-850-2686,세종특별자치시,2018-08-01,5690000,세종특별자치시,
국립조세박물관,국립,세종특별자치시 국세청로 8-14,세종특별자치시 나성동 770,36.48505909,127.2603138,044-204-4646,국세청,http://www.nts.go.kr/museum/main.asp,,09:00,18:00,09:00,18:00,"월요일, 공휴일 휴관",0,0,0,,,,044-204-4646,국세청,2018-08-01,5690000,세종특별자치시,
남도향토음식박물관,공립,광주광역시 북구 설죽로 477,광주광역시 북구 삼각동 779-2,35.202101,126.898701,062-410-6638,광주광역시 북구청,http://www.namdofoodmuseum.go.kr,뮤지엄샵,09:00,18:00,09:00,18:00,"매주 월요일,토,일요일을 제외한 공휴일(토,일요일과 겹치는 1월1일, 설날 및 추석 연휴는 휴관일로 함)",0,0,0,해당없음,"2007년 개관, 음식을 종합적으로 다루는 음식 박물관, 남도의 우수한 전통,향토음식의 보존 및 창의적 계승 발전 도모","버스(향토음식박물관): 10, 23, 30, 57, 버스(일곡사거리): 07, 26, 38, 15",062-410-6638,광주광역시 북구청,2018-05-23,3620000,광주광역시 북구,
대성동고분박물관,공립,경상남도 김해시 가야의 길 126,경상남도 김해시 대성동 434번지,34.425430,128.8730958,055-330-6881,대성동고분박물관,http://ds.gimhae.go.kr/main,,09:00,18:00,09:00,18:00,"매주 월요일 , 1월 1일",0,0,0,,,,055-330-6881,대성동고분박물관,2018-02-18,5350000,경상남도 김해시,
클레이아크 김해미술관,공립,경상남도 김해시 진례면 진례로 275-51,,35.2511084,128.7447532,055-340-7000,클레이아크 김해미술관,http://www.clayarch.org,,10:00,18:00,10:00,18:00,"매주 월요일 , 1월 1일, 설, 추석",2000,1000,500,단체 20퍼센트 할인,,,055-340-7000,클레이아크 김해미술관,2018-02-18,5350000,경상남도 김해시,
고구려대장간마을,공립,경기도 구리시 우미내길 41 (아천동),경기도 구리시 아천동 316-47,37.560824,127.110923,031-550-2363,경기도 구리시청,http://www.guri.go.kr/main/gbv,,09:00,18:00,09:00,19:00,연중무휴,0,0,0,,,,031-550-8355,경기도 구리시청,2018-08-01,3980000,경기도 구리시,
외교박물관,국립,서울특별시 서초구 남부순환로 2572,서울특별시 서초구 서초동1376-2,37.4833638,127.0306263,02-3497-8700,외교박물관,없음,없음,09:30,17:30,09:00,09:01,"토,일,공휴일",0,0,0,,한국외교와관련된사료전시박물관,,02-3497-8700,외교통상부,2018-08-08,3210000,서울특별시 서초구,
전기박물관,사립,서울특별시 서초구 효령로72길60 한전아트센터,서울특별시 서초구 서초동1355,37.4861503,127.0276488,02-2105-8192,전기박물관,www.kepco.co.kr/museum/,,10:30,18:00,10:00,18:00,"매주월요일 설,추석연휴",0,0,0,없음,한국전력에서 전력문화유산을 후대에 남기고자 설립,양재역1번출구에서남부터미널방향으로200미터,02-2105-8192,한국전력공사,2018-08-08,3210000,서울특별시 서초구,
관문사성보박물관,사립,서울특별시 서초구 바위뫼로7길 111,서울특별시 서초구 우면동56,37.473701,127.022231,02-3460-5300,관문사,없음,없음,11:30,17:00,09:00,09:01,"공휴일,전시기간아닌경우 휴관",0,0,0,전시기간만운영,관문사에서운영하는 불교경전등 전시박물관,3호선신분당선역양재역하차3142번버스우면주공아파트정류장하차,02-3460-5300,관문사,2018-08-08,3210000,서울특별시 서초구,
인도박물관,사립,서울특별시 서초구 서초중앙로2길35 광림빌딩,서울특별시 서초구 서초동1444-11,37.4841335,127.0192284,02-585-2185,인도박물관,www.indo-museum.org,,12:30,17:00,10:00,17:00,"매주월요일, 1월1일, 설,추석연휴",3000,1000,1000,"경로65세이상:2,000원",인도의문화및생활을알수있는박물관,3호선남부터미널역3번출구,02-585-2185,김양식,2018-08-08,3210000,서울특별시 서초구,
서울서예관,국립,서울특별시 서초구 남부순환로2406 예술의전당,서울특별시 서초구 서초동 700,37.4783641,127.012144,02-580-1282,서울서예관,www.sac.or.kr,"노천광장,놀이방,카페테리아등",13:30,20:00,11:00,20:00,매월마지막주 월요일,0,0,0,유료,세계적인복합아트센터,3호선남부터미널역5번출구예술의전당,02-580-1282,문화체육관광부,2018-08-08,3210000,서울특별시 서초구,
한가람디자인미술관,국립,서울특별시 서초구 남부순환로2406 예술의전당,서울특별시 서초구 서초동 700,37.4799011,127.0125692,02-580-1282,한가람미술관,www.sac.or.kr,"어린이놀이방,수유실,야외광장등",14:30,20:00,11:00,20:00,매월마지막주 월요일,0,0,0,작품에따라유료,세계적인복합아트센터,3호선남부터미널역5번출구예술의전당,02-580-1282,문화체육관광부,2018-08-08,3210000,서울특별시 서초구,
한가람미술관,국립,서울특별시 서초구 남부순환로2406 예술의전당,서울특별시 서초구 서초동 700,37.4803259,127.0141302,02-580-1282,한가람미술관,www.sac.or.kr,"어린이놀이방,수유실,야외광장등",15:30,20:00,11:00,20:00,매월마지막주 월요일,0,0,0,작품에따라유료,세계적인복합아트센터,3호선남부터미널역5번출구예술의전당,02-580-1282,문화체육관광부,2018-08-08,3210000,서울특별시 서초구,
유리지공예관,사립,서울특별시 서초구 중앙로 555,서울특별시 서초구 우면동610-11,37.4577928,127.0123282,02-578-6663,유리지공예관,www.chiwoocraftmuseum.org,없음,16:30,17:00,09:00,09:01,"월요일,공휴일",0,0,0,없음,2004년10월8일개관한비영리금속공예전문미술관,3호선양재역10번출구에서마을버스10번식유촌에서 하차,02-578-6663,유자야,2018-08-08,3210000,서울특별시 서초구,
한원미술관,사립,서울특별시 서초구 남부순환로2423 한원빌딩B1,서울특별시 서초구 서초동1449-12,37.4817557,127.0153202,02-588-5642,한원미술관,www.hanwon.org,없음,17:30,18:00,10:00,18:00,"매주일,월요일,법정?휴일",0,0,0,일부교육프로그램유료,1993년개관한제1종전문미술관,3호선남부터미널역4-2번출구에서예술의전당방향직진,02-588-5642,(재)한원미술관,2018-08-08,3210000,서울특별시 서초구,
인천광역시립박물관,공립,인천광역시 연수구 청량로160번길 26,인천광역시 연수구 옥련동 525,37.420575,126.653394,032-440-6750,인천광역시립박물관,http://museum.incheon.go.kr,,09:00,18:00,09:00,18:00,"매주 월요일(단, 공휴일인 경우 제외), 공휴일 다음날, 1월1일",0,0,0,,"인천광역시립박물관은 1946년 4월 개관한 우리나라 최초의 공립박물관으로 인천지역의 향토사와 문화유산을 조사, 연구하고 그 결과를 시민들에게 공개하여, 시민들을 위한 시민들의 공간으로 만들자는 취지로 설립되었습니다.","시내버스 8번, 16번,  65-1번, 523번(마을버스) 이용 축현초등학교 하차후 도보 5분",032-440-6750,인천광역시립박물관,2018-08-07,3520000,인천광역시 연수구,
가천박물관,사립,인천광역시 연수구 청량로102번길 40-9,인천광역시 연수구 옥련동 567-22,37.4183415,126.6577304,032-833-4747,가천문화재단,http://www.gcmuseum.org/,,09:00,17:00,09:00,17:00,월요일. 1월 1일. 설날 및 추석연휴,0,0,0,,"가천박물관은 (재)가천문화재단 부속기관으로, 한국의료생활사 전문 박물관이다. 가천길재단의 설립자인 이길여 박사의 ‘박애, 봉사, 애국’의 정신을 실천하고, 가천대 길병원을 아껴준 인천시민들의 사랑에 보답하기 위하여 1995년 10월 31일에 설립되었다.",인천지하철 동막역에서 하차 → 6. 6-1번을 이용하여 송도유원지 앞 하차 → 도보로 15분,032-833-4747,가천문화재단,2018-08-07,3520000,인천광역시 연수구,
경남도립미술관,공립,경상남도 창원시 의창구 용지로 296(경남도립미술관),,35.239711,128.690898,055-254-4600,경상남도청,http://www.gam.go.kr,주차장+물품보관소+수유실+카페+자전거보관대,10:00,18:00,10:00,18:00,"매주 월요일, 1월1일, 설날, 추석",1000,700,500,"7세 미만의 어린이, 65세 이상의 노인, 장애인과 그 안내인, 기초수급 대상자 및 차상위 계층은 무료",경남도립미술관은 2004년 6월 개관한 경상남도 도립미술관입니다.,,055-211-2114,경상남도청,2018-05-28,6480000,경상남도,
군산근대역사박물관,공립,전라북도 군산시 해망로 240,전라북도 군산시 장미동 1-67,35.990772,126.712031,063-454-7870,군산시 박물관관리과,http://museum.gunsan.go.kr/,처치실+다용도실+자전거보관대+수유실,09:00,18:00,09:00,18:00,1월1일,2000,1000,500,"군산시 거주자 할인, 단체관람 할인","근대역사의 중심도시, 군산에 자리한 군산근대역사박물관은 군산의 근대문화 및 해양문화를 주제로 하는특화박물관이자 지역박물관으로서 군산의 역사와 문화를 체험할 수 있는 공간을 제공하고 있음","1~2, 8~9, 11~14, 88~89번 버스 이용 ⇒ 박물관 앞 승강장에서 하차",063-454-7870,전라북도 군산시 박물관관리과,2018-08-07,4670000,전라북도 군산시,
양산시립박물관,공립,경상남도 양산시 북정로78,경상남도 양산시 북정동 678,35.358438,129.048791,055-392-3314,양산시립박물관,http://www.yangsan.go.kr/museum/main.do,"대강당,기획전시실,어린이체험실,시청각실",09:00,18:00,09:00,18:00,"월요일,1월1일,설날,추석",0,0,0,"일부기획전시 유료(개인-일반1,000 /청소년,군인 700/ 어린이 500)(단체-일반700/청소년,군인500/어린이300)","고분문화, 불교문화, 도자문화, 제례문화 전시","1. 지하철-2호선 양산역 하차하여 북정 방면 32번, 128번, 128-1번, 138번 삼성중학교·시립박물관 정류장 하차 2. 버스 -부산 범어사 방면 : 12번, 13번, 삼성중학교·시립박물관 정류장 하차부산 명륜동 방면 : 1200번 삼성중학교·시립박물관 정류장 하차부산 구포, 덕천동 방면 : 23번 삼성중학교·시립박물관 정류장 하차물금 방면 : 21번, 32번, 128번, 128-1번, 138번 삼성중학교·시립박물관 정류장 하차웅상 방면 : 52번, 57번 구.터미널 정류장 하차 후 물금방면에서 오는 차로 환승",055-392-3311,양산시립박물관,2018-02-14,5380000,경상남도 양산시,
의성조문국박물관,공립,경상북도 의성군 금성면 초전1길 83,경상북도 의성군 금성면 초전리 223-7,36.273959,128.676992,054-830-6909,경상북도 의성군청,http://jmgmuseum.usc.go.kr/open_content/main_page/,매점,09:00,18:00,09:00,18:00,"매주월요일, 설날 및 추석 당일",0,0,0,0,"의성군민의 오랜 열망속에 건립되어 2013년 4월 25일 문을 연 의성조문국박물관은 조문국의 역사와 더불어 옛 시절 의성인들의 발자취를 전시물을 통해 보고 느낄 수 있는 곳으로써 의성의 문화유산을 보존·전시하고, 학술조사 연구와 문화 교육을 수행하는 의성 문화유산의 보고이자 역사 문화 도시의 중추적 역할을 하는 문화기반시설입니다.금성산 고분군 인근에 위치한 우리 박물관은 주변 금성산의 수려한 경관과 조화를 이루면서, 미려하고 현대적인 감각의 외관을 갖춘 건축물로 지상3층 지하1층 규모에 상설전시실, 기획전시실, 어린이고고발굴체험관, 세미나실, 165석 규모의 강당을 비롯하여 야외전시장과 공연장을 갖춘 복합문화공간입니다.우리박물관은 앞으로 의성의 귀중한 문화유산을 더욱 효율적으로 보존·전시하고 연구함은 물론, 일반인과 청소년을 대상으로 재미있고 다양한 체험 중심의 교육 프로그램을 개발하여 지속적으로 확대 운영할 계획입니다.아울러 박물관을 찾는 관람객들이 쾌적한 환경 속에서 우수한 의성의 역사와 문화를 체험하고, 배울 수 있는 열린 복합문화공간이 되도록 최선을 다하겠습니다.",* 서울 : 경부고속도로(신갈JC) → 영동고속도로(여주JC) → 중부내륙고속도로(상주IC) → 25번국도(낙단대교) → 912번지방도(안계면) → 28번국도(봉양면) → 5번국도(구미삼거리) → 927번지방도(박물관)* 부산 : 경부고속도로(금호JC) → 중앙고속도로(의성IC) → 5번국도(구미삼거리) → 927번지방도(박물관)* 대구 : 경부고속도로(금호JC) → 중앙고속도로(의성IC) → 5번국도(구미삼거리) → 927번지방도(박물관)* 광주 : 88고속도로(금호JC) → 중앙고속도로(의성IC) → 5번국도(구미삼거리) → 927번지방도(박물관)* 울산 : 울산고속도로(언양JC) → 경부고속도로(금호JC) → 중앙고속도로(의성IC) → 5번국도(구미삼거리) → 927번지방도(박물관)* 구미 : 25번국도(가산IC) → 중앙고속도로(의성IC) → 5번국도(구미삼거리) → 927번지방도(박물관),054-830-6909,경상북도 의성군청,2018-03-01,5150000,경상북도 의성군,
영암군립하정웅미술관,공립,전라남도 영암군 군서면 구림로 96,전라남도 영암군 군서면 서구림리 379-1,34.760825,126.622134,061-470-6841,영암군립하정웅미술관,http://haart.yeongam.go.kr,,10:00,18:00,10:00,18:00,"매주 월요일, 1월1일, 설날, 추석,",0,0,0,0,"영암군 홍보대사인 재일교포 동강 하정웅이 평생동안 모아온 작품과 자료 3,600여점 기증을 계기로 2012년 9월 3일에 개관한 공립미술관이다.",항공: 김포↔광주↔택시 또는 버스로 영암 고속버스: 서울↔영암(1일 약3회) 군내버스: 목포↔독천↔군서사거리 또는 왕인박사유적지 시외버스: 광주↔영암(1일 약35회) 목포↔영암(1일 약25회),061-470-2114,영암군,2018-07-31,4940000,전라남도 영암군,
영암도기박물관,공립,전라남도 영암군 군서면 서호정길 5,전라남도 영암군 군서면 서구림리 354,34.760422,126.620688,061-470-6851,영암도기박물관,http://dogi.yeongam.go.kr,박물관 마당 정자(휴게공간),10:00,18:00,10:00,18:00,없음,0,0,0,0,"국가사적 제338호 구림도기가마터에서 출토된 국내 최초의 고화도의 시유도기(유약을 입힌)인  ''구림도기''의 역사성을 토대로 전시, 도기체험, 영암도기문화상품을 제작 판매하는 복합문화공간입니다.",항공: 김포↔광주↔택시 또는 버스로 영암 고속버스: 서울↔영암(1일 약3회) 군내버스: 목포↔독천↔군서사거리 또는 왕인박사유적지 시외버스: 광주↔영암(1일 약35회) 목포↔영암(1일 약25회),061-470-2114,영암군,2018-07-31,4940000,전라남도 영암군,
상주자전거박물관,공립,경상북도 상주시 용마로 415,경상북도 상주시 도남동 산 3-4,36.4537100,128.2552120,054-534-4973,상주박물관,http://museum.sangju.go.kr/,자전거보관대+수유실+매점,09:00,18:00,09:00,18:00,"매년 1월 1일, 매주 월요일",0,0,0,,,,054-534-4973,상주시청,2018-02-20,5110000,경상북도 상주시,
함창 명주박물관,공립,경상북도 상주시 함창읍 무운로 1593,경상북도 상주시 함창읍 교촌리 199-1,36.5765010,128.1598040,054-541-9260,함창 명주박물관,,,09:00,18:00,09:00,18:00,연중무휴,0,0,0,,,,054-541-9260,상주시청,2018-02-20,5110000,경상북도 상주시,
상주박물관,공립,경상북도 상주시 경천로 684,경상북도 상주시 사벌면 삼덕리 산 18-7,36.4605310,128.2407590,054-537-6752,상주박물관,http://museum.sangju.go.kr/,자전거보관대+수유실+매점,09:00,18:00,09:00,18:00,"매년 1월 1일, 매주 월요일",1000,500,0,,,,054-537-6752,상주시청,2018-02-20,5110000,경상북도 상주시,
허준박물관,공립,서울특별시 강서구 허준로 87,서울특별시 강서구 가양동 26-5,37.567669,126.851032,02-3661-8686,강서문화원,http://www.heojun.seoul.kr/,"주차장(무료 32대), 뮤지엄샵, 카페테리아, 휴게쉼터, 정원",10:00,18:00,10:00,18:00,"매주 월요일, 신정, 설·추석 당일 / 동절기(11월~2월) 17:00 관람종료",1000,500,500,"1. 만 6세 이하, 만 65세 이상, 국가·독립유공자, 장애인, 다둥이행복카드 소지자 무료   2. 통합관람(겸재정선미술관+허준박물관) - 어른 : 개인 1,300원, 단체 1,000원 / 청소년 : 개인 700원, 단체 500원",허준박물관은 2005.3.23. 개관하여 허준 선생의 생애와 학문적 업적을 널리 기리고자 관련 자료를 수집·연구·전시하는 한의학 복합 문화공간임,"지하철9호선 가양역1번 출구(도보 10분) / 지하철5호선 발산역3번 출구→지선버스 6657, 6630, 1002 탑승, 공진중학교 하차",02-2600-6804,서울특별시 강서구청,2018-02-14,3150000,서울특별시 강서구,
겸재정선미술관,공립,서울특별시 강서구 양천로47길 36,서울특별시 강서구 가양동 243-1,37.572048,126.838232,02-2659-2206,강서문화원,http://gjjs.or.kr/,"주차장(무료 26대), 카페테리아, 문화상품판매점, 휴게쉼터",10:00,18:00,10:00,18:00,"매주 월요일, 신정, 설·추석 당일 / 동절기(11월~2월) 17:00 관람종료",1000,500,500,"1. 만 6세 이하, 만 65세 이상, 국가·독립유공자, 장애인, 다둥이행복카드 소지자 무료   2. 통합관람(겸재정선미술관+허준박물관) - 어른 : 개인 1,300원, 단체 1,000원 / 청소년 : 개인 700원, 단체 500원",겸재정선미술관은 진경산수화풍을 완성한 겸재 정선(1676~1759)의 위대한 예술적 업적을 기리고 진경문화를 계승·발전시키고자 2009.4.23. 건립되었음,"지하철9호선 양천향교역 1번출구→마을버스 강서06 탑승,  겸재정선미술관 앞 하차",02-2600-6154,서울특별시 강서구청,2018-02-14,3150000,서울특별시 강서구,
정읍시립미술관,공립,전라북도 정읍시 시기4길 7,전라북도 정읍시 시기동 69-15,35.552443,126.861538,063-539-6419,정읍시립미술관,http://www.jeongeup.go.kr/culture/index.jeongeup?menuCd=DOM_000000603002001003,까페,10:00,18:00,10:00,18:00,매주 월요일,0,0,0,전체 무료,정읍시립미술관은 전라북도 최초의 시립미술관으로 지난 2014년 3월부터 시립도서관을 리모델링하여 2015년 10월 24일 개관,"277번(시내운행버스) 이용, 시기주공 정류장에서 하차, 도보로 10분 소요",063-539-6419,정읍시립미술관,2018-07-24,4690000,전라북도 정읍시,
정읍시립박물관,공립,전라북도 정읍시 내장산로 370-12,전라북도 정읍시 부전동 1009,35.5277169,126.894646,063-539-6792,정읍시립박물관,http://www.jeongeup.go.kr/culture/index.jeongeup?menuCd=DOM_000000603001000000,어린이문화놀이터,09:00,18:00,09:00,18:00,"매주 월요일, 1월 1일, 설날, 추석",0,0,0,전체 무료,정읍시립박물관,"171번(시내버스) 이용, 20~30분 간격, 박물관 앞 부전마을 버스정류장에서 하차",063-539-6792,정읍시립박물관,2018-07-24,4690000,전라북도 정읍시,
건국대학교박물관,대학,서울특별시 광진구 능동로 120,서울특별시 광진구 화양동 1,37.542193,127.076718,02-450-3880,건국대학교,http://museum.konkuk.ac.kr/,없음,09:30,17:00,00:00,00:00,"주말, 공휴일, 방학기간",0,0,0,0,"1963년에 개관한 이해 국보 1점, 보물 1점을 포함하여 6천여점의 유물을 소장한 종합박물관임.","건국대학교 내에 위치함. 지하철 2,7호선 및 건대역 및 건대병원에서 버스 이용 가능",02-450-7592,서울특별시 광진구청,2018-02-22,3040000,서울특별시 광진구,
세종대학교박물관,대학,서울특별시 광진구 능동로21길 37,서울특별시 광진구 군자동 98,37.552054,127.073644,02-3408-3277,세종대학교,http://museum.sejong.ac.kr,없음,10:00,15:00,00:00,00:00,"주말, 공휴일, 방학기간",0,0,0,0,"1973년 개관이래 국내 대학박물관 중 최대 규모를 자랑하며, 고고역사 유물과 대한제국 황실의 궁중의상 등이 전시되어 있다.",세종대내에 위치함. 지하철 7호선 어린이대공원역 및 버스 이용,02-450-7592,서울특별시 광진구청,2018-02-22,3040000,서울특별시 광진구,
추사박물관,공립,경기도 과천시 추사로 78(주암동),경기도 과천시 주암동 184-2번지,37.4528804,127.0286591,02-2150-3650,추사박물관,http://www.chusamuseum.go.kr,,10:00,18:00,10:00,18:00,"매주 월요일(월요일이 공휴일인 경우에는 그 다음날일 휴관일), 1월 1일, 설날, 추석 (연휴기간 포함), 과천시장이 정하는 휴관일",2000,1000,500,6세 이하 및 노인 무료,추사 김정희 전문 박물관,"지하철 4호선 선바위역, 지하철3호선 양재역에서 버스 이용",02-3677-2065,과천시청,2018-07-31,3970000,경기도 과천시,
세계다문화박물관,사립,서울특별시 은평구 불광로 135,서울특별시 은평구 불광동 13-27,37.61871790,126.93253230,02-323-6848,세계다문화박물관,http://www.multiculturemuseum.com,"카페, 주차장",13:00,18:00,10:00,18:00,"매주 일요일,설날 및 추석 당일",7000,6000,5000,"국가유공자 및 장애인 본인 50퍼센트 감면, 문화가있는날 관람료 2000원 할인","글로벌 시대에 앞서가는, 다양한 문화가 공존하는 오감체험 박물관","지하철 6호선 독바위역 하차 후 1번 출구로 나오셔서 왼쪽 방향으로 1분거리, 버스 7720 - 수양탕 정류소에 하차후 오른쪽 방향으로 1분 거리",02-323-6848,세계다문화박물관,2018-05-31,3110000,서울특별시 은평구,
은평역사한옥박물관,공립,서울특별시 은평구 연서로50길 8,서울특별시 은평구 진관동 135-5,37.64036870,126.93803750,02-351-8524,은평역사한옥박물관,http://museum.ep.go.kr,"장난감도서관, 주차장, 카페",09:00,18:00,09:00,18:00,"매주 월요일, 1월 1일, 설날 및 추석 연휴",1000,500,0,"65세 이상 무료, 문화가 있는 날 무료","은평의 역사와 발굴유물 전시, 한옥 건축 및 구조물 전시 등","지하철 3호선 연신내역 3번 출구 연서시장 정류장, 701 및 7211 버스 승차, 하나고 앞 정류장 하차. 지하철 3호선 구파발역 3번 출구 정류장, 7723  버스 승차, 하나고 앞 정류장 하차",02-351-8525,서울특별시 은평구청,2018-05-31,3110000,서울특별시 은평구,
통영옻칠미술관,사립,경상남도 통영시 용남면 용남해안로 36,경상남도 통영시 용남면 화삼리 658,34.855059,128.442932,055-649-5257,통영옻칠미술관,www.ottchil.org,"주차장, 휴게실, 아트샵",10:00,18:00,10:00,18:00,"매주 월요일(월요일이 공휴일인 경우 다음날 휴관), 설, 추석,",3000,2000,1000,65세이상 노인은 1500원,전통옻칠예술과 현대화된 옻칠창작예술을 감상할 수 있는 국내 유일의 옻칠미술관,,055-649-5257,통영옻칠미술관,2018-08-21,5330000,경상남도 통영시,
전혁림미술관,사립,경상남도 통영시 봉수1길 10(봉평동),경상남도 통영시 봉평동 230-1,34.826732,128.415164,055-645-7349,전혁림미술관,www.jeonhyucklim.org,"주차장, 카페테리아",10:00,17:30,10:00,17:30,"1월1일, 설, 매주 월,화요일",0,0,0,0,"전혁림 화백이 1975년부터 30년 가까이 생활하던 집을 헐고 새로운 창조의 공간으로 신축하여 2003년 5월 11일 미술관으로 개관. 전혁림 화백의 작품과 관련 자료를 상설 전시하고 있으며, 봄, 가을 기획전을 개최함",,055-645-7349,전혁림미술관,2018-08-21,5330000,경상남도 통영시,
통영시립박물관,공립,경상남도 통영시 중앙로 65(도천동),경상남도 통영시 도천동 28,34.840684,128.416418,055-646-8371,이영준,museum.tongyeong.go.kr,,09:00,18:00,09:00,18:00,"월요일, 설, 추석 당일",2000,1500,1000,케이블카탑승자 및 삼도수군통제영 관람자 20퍼센트 할인,통영 역사문화 자료 전시,통영미늘고개>롯데마트방면 진입>산복도로>충렬사교차로에서 좌회전 400M>신협앞우회전진입>50M전방에서 통영시립박물관 도착,055-650-4515,통영시청,2018-08-21,5330000,경상남도 통영시,
평강 성서유물박물관,사립,서울특별시 구로구 오류로8라길 44,서울특별시 구로구 오류동 150-15,37.4919053,126.835287,02-2686-9496,(재)휘선문화재단,http://www.apm.or.kr/,,10:00,17:00,13:00,17:00,매주 월요일,2000,1000,1000,"6세 이하 어린이, 장애우 및 65세이상 노인 무료","성서의 배경이 되는 지역인 메소포타미아, 이집트, 고대그리스, 로마에서 출토된 미이라, 향수병, 토기, 두루마리 성경등을 전시하고 있는 국내 유일의 성서고고학 박물관",지하철 1호선 오류역하차 도보로 7분 지하철 7호선 천왕역하차 2번출구에서 도보로 12분,02-860-2278,구로구청 문화관광과,2018-02-13,3160000,서울특별시 구로구,
거제박물관,사립,경상남도 거제시 거제대로 3791,경상남도 거제시 옥포동 1565,34.894041,128.686198,055-687-6790,거제박물관,http://www.geojemuseum.or.kr,,09:00,18:00,09:00,18:00,매주 월요일,3000,2000,1500,단체 및 문화가있는날 할인/  병역명문가 무료입장,,,055-687-6790,거제박물관,2018-08-03,5370000,경상남도 거제시,
거제민속박물관,사립,경상남도 거제시 연초면 대금산로 339-7,경상남도 거제시 연초면 명동리 390,34.950113,128.677426,055-637-3722,거제민속박물관,,,09:00,18:00,09:00,18:00,없음,2000,1000,1000,단체할인/  유아/  노인 무료,민속품/  고서화/  농기구 등 30000여점 소장,,055-637-3722,거제민속박물관,2018-08-03,5370000,경상남도 거제시,
해금강테마박물관,사립,경상남도 거제시 남부면 해금강로 120,경상남도 거제시 남부면 갈곶리 262-5,34.740586,128.662753,055-632-0670,해금강테마박물관,http://www.hggmuseum.com,,09:00,18:00,09:00,18:00,명절당일오전,6000,4000,3000,단체 및거제시민할인/  경로/  장애인 무료,,,055-632-0670,해금강테마박물관,2018-08-03,5370000,경상남도 거제시,
외도조경식물원,사립,경상남도 거제시 일운면 와현리 외도길 17,경상남도 거제시 일운면 와현리 산109번지,34.769544,128.712954,070-7715-3330,외도보타니아,http://www.oedobotania.com,,08:30,17:00,08:30,17:00,없음,11000,8000,5000,단체(30명이상)/ 거제시민할인/ 병역명문가무료,,,070-7715-3330,외도보타니아,2018-08-03,5370000,경상남도 거제시,
거제어촌민속전시관,공립,경상남도 거제시 일운면 지세포해안로 41,경상남도 거제시 일운면 지세포리 929-88,34.833899,128.701484,055-639-8270,거제해양관광개발공사,http://www.geojemarine.or.kr,,09:00,18:00,09:00,18:00,매주 월요일,3000,2000,1000,단체/  노인/  지역민/  문화가있는날 할인/  장애인/  아동 무료,,,055-639-8270,거제해양관광개발공사,2018-08-03,5370000,경상남도 거제시,
포로수용소유적박물관,공립,경상남도 거제시 계룡로 61,경상남도 거제시 고현동 362,34.876542,128.624447,055-639-8125,거제해양관광개발공사,http://www.pow.or.kr,,09:00,18:00,09:00,18:00,매주 월요일,7000,5000,3000,단체/  노인/  지역민/  문화가있는날 할인/  만6세이하/  장애인/ 초등학생(어린이날)/  국가보훈대상자/  기초생활수급자 무료,,,055-639-8125,거제해양관광개발공사,2018-08-03,5370000,경상남도 거제시,
국립해양박물관,국립,부산광역시 영도구 해양로301번길 45,,35.07856349,129.0802456,051-309-1900,국립해양박물관,http://www.knmm.or.kr,,09:00,18:00,09:00,19:00,매주월요일/월요일이공휴일인경우 공휴일에운영을하며 공휴일 다음의 첫번째평일에휴관,0,0,0,,,,051-309-1900,해양수산부,2018-08-20,3280000,부산광역시 영도구,
수도국산달동네박물관,공립,인천광역시 동구 솔빛로 51(송현동),인천광역시 동구 송현동 163번지,37.477214,126.639075,032-770-6133,인천광역시 동구,icdonggu.go.kr/open_content/museum/,,09:00,18:00,09:00,18:00,매주 월요일 1월 1일 / 설날.추석 당일,1000,700,500,단체20명이상 관람시 개인관람료의 1/2,"수도국산달동네박물관은 인천 동구청에서 건립하고 운영하는 공립박물관으로, 2005년 10월 25일에 제1종 전물박물관으로 개관하였다. 우리나라의 1960~70년대 달동네 서민의 생활상을 테마로 한 체험 중심의 근현대생활사 박물관이다. 기성세대에게는 향수를, 현세대에게는 기성세대를 이해할 수 있는 교육의 장이 되도록 박물관을 운영하고 있다.","지하철 이용시 1호선 동인천역 하차, 4번출구, 도보 10분 동인천 북광장 → 송현시장 입구(파리바게트와 인천종합동물병원 사이길) → 오르막길 약 400m / 시내버스 이용시 미림극장 하차 도보 7분, 동구청소년수련관 하차 도보 7분",032-770-6133,인천광역시 동구,2018-07-31,3500000,인천광역시 동구,
진주시립 이성자미술관,공립,경상남도 진주시 에나로 128번길 14,경상남도 진주시 충무공동 291,35.176177,128.142911,055-749-3661,경상남도 진주시청,http://www.jinju.go.kr/rheesjmuseum/,,09:00,18:00,09:00,18:00,매주월요일,2000,1000,500,"장애인,국가유공자등 면제",이성자화백 작품의 기증으로 개관한 미술관,"버스 : 296,300,301",055-749-3661,경상남도 진주시청,2018-02-13,5310000,경상남도 진주시,
국립진주박물관,국립,경상남도 진주시 남강로 626-35,경상남도 진주시 남성동 169-17,35.264325,128.169400,055-742-5951,국립중앙박물관,http://jinju.museum.go.kr,뮤지엄 샵,09:00,18:00,09:00,17:00,"매주월요일, 매년1월1일",2000,1000,600,"진주시민은 무료,7세미만 어린이,65세이상 어른,장애인복지카드,국가유공자증 소지자는 무료","국립진주박물관은 1984년 11월2일 개관하였으며 우리나라 전통목조탑을 석조건물로 형상화한 것으로 건축가 故김수근 선생의 대표적 작품이다.개관당시 가야문화를 소개하고 경남 서부 지역의 고고학적 연구조사를 담당하는 기관이었으나, 1998년 1월 임진왜란 최대의 격전지인 진주성에 위치하고 있음을 강점으로 삼아 임진왜란사를 주제로 하는 역사박물관으로 전환하였다.2001년 11월19일, 경남 사천 출신의 재일교표 故 두암 김용두(1922~2003)선생의 기증문화재를 전시하기 위하여 두암관을 개관하였으며, 2008년 12월 역사문화실을 신설하여 경남 지역의 역사와 전통문화를 소개하고 있다. 이외에 기획전시실, 3D입체영상관, 감각체험실, 정보자료실, 강당과 관람객 식당 등이 운영되고 있다. 또한, 관람객의 문화욕구 충족을 위한 다채로운 교육프로그램과 문화행사를 연중 개최하며, 지역문화를 선도하는 문화중추기관으로서의 역할을 다하고 있다.","시외버스터미널에서 도보로 10분(진주성 방향 직진),고속버스터미널 건너편에서 시내버스(250, 262, 284) 18~19분 소요, 이마트 정류장에서 하차 후 도보로 약 5분",055-742-5951,국립중앙박물과,2018-02-13,5310000,경상남도 진주시,
경상대학교 부속박물관,대학,경상남도 진주시 진주대로 501,경상남도 진주시 가좌동 900,35.154983,128.102217,055-772-0601,경상대학교,http://museum.gnu.ac.kr/main/,,09:00,17:00,00:00,00:00,"토요일,일요일,공휴일,개년기념일(10월20), 학교에서 정하는 휴관일",0,0,0,전체 무료,,,055-772-0601,경상대학교,2018-02-13,5310000,경상남도 진주시,
진주 청동기문화박물관,공립,경상남도 진주시 대평면 호반로 1353,경상남도 진주시 대평면 대평리 706-5,35.155341,128.101981,055-749-5172,경상남도 진주시청,http://bronze.jinju.go.kr/,,09:00,18:00,09:00,18:00,"매주 월요일, 매년 1월1일, 설, 추석",0,0,0,"보호자를 동반한 6세 이하 어린이 및 65세 이상 어른, 각강의 법률에 의한 증명을 장애인,구구가유공자와 그 유가족, 독립유공자,참전유공자와 그 밖에 박물관 운영상 필요하다고 인정하는 자",,시내버스 144번,055-749-5172,경상남도 진주시청,2018-02-13,5310000,경상남도 진주시,
삼성 교통박물관,사립,경기도 용인시 처인구 포곡읍 에버랜드로 376번길 171,경기도 용인시 처인구 포곡읍 유운리 432,37.301156,127.217029,031-320-9900,삼성화재,http://www.stm.or.kr,,10:00,18:00,10:00,18:00,"매주 월요일, 설연휴,추석연휴",6000,5000,5000,3000,,,031-320-9900,삼성화재,2018-05-08,4050000,경기도 용인시,
한국등잔박물관,사립,경기도 용인시 처인구 모현면 능곡로56번길 8,경기도 용인시 처인구 모현면 능원리 258-9,37.336675,127.177097,031-334-0797,(재)한국등잔박물관,http://www.deungjan.or.kr,,10:00,18:00,10:00,18:00,"매주 월요일~화요일,설연휴,추석연휴",4000,2500,2500,2500,,,031-334-0797,(재)한국등잔박물관,2018-05-08,4050000,경기도 용인시,
명지대학교박물관,사립,경기도 용인시  처인구 명지로 116,경기도 용인시 처인구 남동 555,37.224031,127.186713,031-330-6074,명지대,http://mum.mju.ac.kr,,10:00,18:00,10:00,18:00,"매주 월요일,설연휴,추석연휴",0,0,0,0,,,031-330-6074,명지대,2018-05-08,4050000,경기도 용인시,
용인대학교박물관,사립,경기도 용인시  처인구 용인대학로 134,경기도 용인시 처인구 삼가동 470,37.226722,127.168284,031-8020-3001,용인대,http://www.yongin.ac.kr/,,10:00,18:00,10:00,18:00,"매주 월요일,설연휴,추석연휴",0,0,0,0,,,031-8020-3001,용인대,2018-05-08,4050000,경기도 용인시,
경희대학교혜정박물관,사립,경기도 용인시  기흥구 덕영대로 1732,경기도 용인시 기흥구 서천동 1,37.240848,127.081641,031-201-2014,경희대,http://oldmaps.khu.ac.kr,,10:00,18:00,10:00,18:00,"매주 월요일,설연휴,추석연휴",0,0,0,0,,,031-201-2014,경희대,2018-05-08,4050000,경기도 용인시,
단국대학교석주선기념박물관,사립,경기도 용인시  수지구 죽전로 152,경기도 용인시 수지구 죽전동 152,37.323105,127.127897,031-8005-2389,단국대,http://museum.dankook.ac.kr,,10:00,18:00,10:00,18:00,"매주 월요일,설연휴,추석연휴",0,0,0,0,,,031-8005-2389,단국대,2018-05-08,4050000,경기도 용인시,
경기도박물관,공립,경기도 용인시  기흥구 상갈로 6,경기도 용인시 기흥구 상갈동 85,37.268263,127.111962,031-288-5300,(재)경기문화재단,http://musenet.ggcf.kr/,,10:00,18:00,10:00,18:00,"매주 월요일,설연휴,추석연휴",4000,2000,0,3000,,,031-288-5300,(재)경기문화재단,2018-05-08,4050000,경기도 용인시,
경기도어린이박물관,공립,경기도 용인시  기흥구 상갈로 6,경기도 용인시 기흥구 상갈동 85,37.268263,127.111962,031-270-8636,(재)경기문화재단,http://gcm.ggcf.kr/,,10:00,18:00,10:00,18:00,"매주 월요일,설연휴,추석연휴",4000,4000,4000,2000,,,031-270-8636,(재)경기문화재단,2018-05-08,4050000,경기도 용인시,
한국민속촌박물관,사립,경기도 용인시  기흥구 민속촌로 90,경기도 용인시 기흥구 보라동 35,37.262171,127.119696,031-288-0000,한국민속촌,http://www.koreanfolk.co.kr,,10:00,18:00,10:00,18:00,"매주 월요일,설연휴,추석연휴",18000,15000,13000,13000,,,031-288-0000,한국민속촌,2018-05-08,4050000,경기도 용인시,
삶의이야기가있는집,사립,경기도 용인시  처인구 원삼면 내동로 50-13,경기도 용인시 처인구 원삼면 사암리 883-1,37.175593,127.295545,031-334-4115,삶의이야기가있는집,http://motherparkchung-soo.org/,,10:00,18:00,10:00,18:00,"매주 월요일,설연휴,추석연휴",0,0,0,0,,,031-334-4115,삶의이야기가있는집,2018-05-08,4050000,경기도 용인시,
호암미술관,사립,경기도 용인시  처인구 포곡읍 에버랜드로562번길 38,경기도 용인시 처인구 포곡읍 가실리 산12-8,37.294586,127.193861,031-320-1800,삼성재단,www.hoammuseum.org,,10:00,18:00,10:00,18:00,"매주 월요일,설연휴,추석연휴",4000,3000,3000,2000,,,031-320-1800,삼성재단,2018-05-08,4050000,경기도 용인시,
용인문화유적전시관,공립,경기도 용인시  기흥구 동백3로 79,경기도 용인시 기흥구 중동 862,37.273997,127.157071,031-324-4796,용인문화유적전시관,http://tour.yongin.go.kr,,10:00,18:00,10:00,18:00,"매주 월요일,설연휴,추석연휴",0,0,0,0,,,031-324-4796,용인문화유적전시관,2018-05-08,4050000,경기도 용인시,
예아리박물관,사립,경기도 용인시  백암면 원설로 270번길 25,경기도 용인시 처인구 백암면 근삼리 389-1,37.141902,127.363518,031-323-7277,예아리박물관,http://www.yearee.com,,10:00,18:00,10:00,18:00,"매주 월요일,설연휴,추석연휴",5000,4000,3000,3000,,,031-323-7277,예아리박물관,2018-05-08,4050000,경기도 용인시,
신영숙컬렉션박물관,사립,경기도 용인시  기흥구 흥덕4로 63,경기도 용인시 기흥구 영덕동 55-4,37.277819,127.090374,031-282-8845,신영숙컬렉션박물관,http://www.icamkorea.org,,10:00,18:00,10:00,18:00,"매주 월요일,설연휴,추석연휴",9000,5000,3500,0,,,031-282-8845,신영숙컬렉션박물관,2018-05-08,4050000,경기도 용인시,
설민민화박물관,사립,경기도 용인시  처인구 동부로 823,경기도 용인시 처인구 해곡동 154-1,37.189385,127.277021,031-336-1541,설민민화박물관,,,10:00,18:00,10:00,18:00,"매주 월요일,설연휴,추석연휴",0,0,0,0,,,031-336-1541,설민민화박물관,2018-05-08,4050000,경기도 용인시,
한국미술관,사립,경기도 용인시  기흥구 마북로 244-2,경기도 용인시 기흥구 마북동 73-1,37.309165,127.131941,031-284-6418,한국미술관,www.hartm.com,,10:00,18:00,10:00,18:00,"매주 월요일,설연휴,추석연휴",0,0,0,0,,,031-284-6418,한국미술관,2018-05-08,4050000,경기도 용인시,
이영미술관,사립,경기도 용인시  기흥구 흥덕4로 63,경기도 용인시 기흥구 영덕동 55-4,37.277819,127.090374,031-213-8223,이영미술관,www.icamkorea.org,,10:00,18:00,10:00,18:00,"매주 월요일,설연휴,추석연휴",9000,5000,3500,0,,,031-213-8223,이영미술관,2018-05-08,4050000,경기도 용인시,
마가미술관,사립,경기도 용인시  처인구 모현면 문형동림로101번길 37,경기도 용인시 처인구 모현면 동림리 263,37.331711,127.192921,031-334-0365,마가미술관,http://www.magamuseum.co.kr/,,10:00,18:00,10:00,18:00,"매주 월요일,설연휴,추석연휴",4000,3000,2500,2500,,,031-334-0365,마가미술관,2018-05-08,4050000,경기도 용인시,
백남준아트센터,공립,경기도 용인시 기흥구 상갈로 6,경기도 용인시 기흥구 상갈동 85,37.267944,127.108803,031-201-8500,(재)경기문화재단,http://www.njpartcenter.kr/,,10:00,18:00,10:00,18:00,"매주 월요일,설연휴,추석연휴",4000,2000,0,0,,,031-201-8500,(재)경기문화재단,2018-05-08,4050000,경기도 용인시,
안젤리미술관,사립,경기도 용인시  처인구 이원로 244,경기도 용인시 처인구 이동면 묵리 724-4,37.184602,127.231844,031-323-1968,안젤리미술관,http://www.angeliartmuseum.com/,,10:00,18:00,10:00,18:00,"매주 월요일,설연휴,추석연휴",5000,2000,0,2000,,,031-323-1968,안젤리미술관,2018-05-08,4050000,경기도 용인시,
청량산박물관,공립,경상북도 봉화군 명호면 광석길 39,경상북도 봉화군 명호면 1726-6,36.788172,128.893923,054-679-6672,청량산도립공원관리사무소,http://bonghwa.go.kr/open.content/mt/,전망대+휠체어+안내소,09:00,18:00,09:00,18:00,"매주 월요일(단, 국공일 제외)",0,0,0,0,"청량산박물관은 2004-06-11일 개관하여 청량산을 배경으로 한 문화유산과 자연환경, 지역 홍보자료를 한 곳에 모아 전시함으로써 봉화의 역사와 문화에 대한이해는 물론, 지역전통문화의 계승발전과 군민 정서함양의 계기를 마련하고 청량산을 찾는 사람들에게 유익한 탐방문화를 제공하여 자연체험의 산 교육장으로 활용함과 아울러 지역의 새로운 관광명소를 조성하고자 건립하였다","봉화출발 일 4회, 안동(67번)출발 일 5회",054-679-6672,경상북도 봉화군청,2018-02-23,5240000,경상북도 봉화군,
충재박물관,공립,경상북도 봉화군 봉화읍 충재길 60,경상북도 봉화군 봉화읍 유곡리 934,36.9053101,128.7423901,054-674-0963,(사)닭실문화유적보존회,http://darsil.alltheway.kr,주차장,10:00,16:00,10:00,16:00,"매주 월요일(단 설·추석 연휴, 법정공휴일 휴관)",0,0,0,,"2007년 개관한 충재박물관은 조선시대 유물 10,000여점과 484점의 보물을 소장한 박물관으로, 전통마을인 닭실마을(달실)에 위치하고 있다. 소장하고 있는 모든 유물은 이 마을의 종갓집 및 마을출신 자손들로부터 받은 것이다. 연간 20,000여 명의 관람객이 방문하고 있다. 주변문화재의 관리와 교육프로그램 등을 시행하면서 봉화지역의 박물관으로서의 역할을 다하고 있는 중이다.","버스: 봉화읍에서 춘양 및 재산방면 완행버스 이용, 택시 : 봉화버스정류장에서 약 6,000원 내외, 자가용 : 봉화버스정류장에서 7분 거리",054-679-6331,경상북도 봉화군청,2018-02-23,5240000,경상북도 봉화군,
울산박물관,공립,울산광역시 남구 두왕로 277,울산광역시 남구 신정동 1888,35.313923,129.183193,052-222-8501,울산박물관,http://museum.ulsan.go.kr/,물품보관소+자전거보관대+유모차+휠체어+뮤지엄?+식당,09:00,18:00,09:00,18:00,"1월 1일, 매주 월요일(단 월요일이 공휴일일 때에는 공휴일 다음의 첫 번째 평일)",0,0,0,유료전시 별도 책정,울산박물관은 2011년 6월 22일 개관하여 선사시대에서 현대에 이르기까지 울산의 역사를 아우르는 종합적인 도시역사박물관,"버스:205, 225, 405, 415, 453, 504, 507,527, 715, 744, 1705,  1703, 1713, 1104, 1401, 5004",052-229-3731,울산박물관,2018-08-14,6310000,울산광역시,
울산암각화박물관,공립,울산광역시 울주군 두동면 반구대안길 254,울산광역시 울주군 두동면 천전리 333-1,35.362893,129.101423,052-229-4797,울산암각화박물관,http://bangudae.ulsan.go.kr/,장애인화장실+야외공원+야외화장실+세미나실,09:00,18:00,09:00,18:00,"1월 1일, 매주 월요일(단 월요일이 공휴일일 때에는 공휴일 다음의 첫 번째 평일)",0,0,0,해당사항 없음,울산암각화박물관 울산 반구대암각화(국보 제285호)와 천전리각석(국보 제147호)을 소개하고 국내 암각화연구의 중추적인 역할을 담당하기 위하여 2008년 5월 30일에 개관.,버스304번(하루3대),052-222-8501,울산박물관,2018-08-14,6310000,울산광역시,
울산대곡박물관,공립,울산광역시 울주군 두동면 서하천전로 257,울산광역시 울주군 두동면 천전리 307,35.619116,129.169213,052-229-6638,울산대곡박물관,http://dgmuseum.ulsan.go.kr/,물품보관함+장애인화장실+음수대,09:00,18:00,09:00,18:00,"1월 1일, 매주 월요일(단 월요일이 공휴일일 때에는 공휴일 다음의 첫 번째 평일)",0,0,0,해당사항 없음,"울산대곡박물관은 대곡의 역사를 보여주는 고고전문박물관으로 2009년 6월 24일에 개관했다. 5차에 걸친 발굴조사로 출토된 다종다양한 유구와 각종 토기류, 철기류, 도자류, 기와류 등을 종합전시",버스:304번(하루3대),052-222-8501,울산박물관,2018-08-14,6310000,울산광역시,
동두천시 경기북부어린이박물관,공립,경기도 동두천시 평화로 2910번길 46,경기도 동두천시 상봉암동 162,37.944561,127.064454,031-860-2860,경기도 동두천시,http://childmus.ddc.go.kr,카페+뮤지엄샵+물품보관소+수유실+의무실,10:00,17:50,10:00,17:50,"매주 월요일 (단, 월요일이 공휴일인 경우 당일은 개관하고 그 다음 첫번째 평일에 휴관), 1월1일, 설날 및 추석 당일",4000,4000,4000,"단체 3000원, 동두천시민 2000원",어린이를 주체로 환경생태 그리고 인간의 삶이 지니는 유기적 관계와 조합을 이해하는 박물관,"1호선 소요산역 1번 출구, 도보 10분",031-860-2860,경기도 동두천시청,2018-08-01,3920000,경기도 동두천시,
자유수호평화박물관,공립,경기도 동두천시 평화로 2910번길 96-63,경기도 동두천시 상봉암동 162-10,37.942451,127.066069,031-860-3333,경기도 동두천시,http://www.ddc.go.kr/museum,휴게공간,09:00,18:00,09:00,18:00,"매주 월요일 (단, 월요일이 공휴일인 경우 당일은 개관하고 그 다음 첫번째 평일에 휴관)",1000,500,400,단체 및 동두천시민 할인,잊혀져 가는 6.25전쟁에 대한 이해와 자유와 평화를 수호하기 위하여 희생하신 분들의 뜻을 기리고 유엔 참전국과의 우호 증진을 위해 건립된 박물관,"1호선 소요산역 1번 출구, 도보 15분",031-860-3333,경기도 동두천시청,2018-08-01,3920000,경기도 동두천시,
대구미술관,공립,대구광역시 수성구 미술관로 40(삼덕동),대구광역시 수성구 삼덕동 374,35.826880,128.674278,053-803-7900,대구미술관,http://artmuseum.daegu.go.kr,아트숍+ 까페+ 수유실+ 물품보관함+ 미술정보센터+ 수변휴게공간,10:00,19:00,10:00,19:00,매주 월요일 (단 월요일이 공휴일인 경우 당일은 개관하고 그 다음 첫번째 평일에 휴관),1000,700,700,국민기초생활수급자+ 다자녀(세자녀 이상+ 막내가 2001년 이후 출생일 경우)가정 구성원+ 100시간 이상 활동 자원봉사자+ 그린카드 소지(이용)자는 50 할인+ 경로(66세 이상)+ 영유아(7세이하)+ 국가유공자+ 장애인(1~3급은 동반1인 포함) 국빈+ 외교사절단 및 그 수행자+ 학술연구 및 공무수행을 위해 출입하는 자는 무료이며+ 할인 및 무료 대상자는 증빙서류를 지참해야함+ 전시관람료는 각 전시별로 변동될 수 있음,여유의 미학이 존재하는 문화공간인 대구미술관은 2011년 5월 26일 개관하였습니다. 총7개의 전시공간을 갖추고 규모와 시설 면에서 최고 수준을 자랑하며  개관 이후 가치 창출과 미래 비전을 제시하는 진정한 미술관으로서 자리매김하기 위해 힘찬 도약을 꾀하고 있습니다.,버스: 수성3 수성3-1+지하철:2호선 대공원역 5번출구(1~2시간 간격 셔틀버스 탑승),053-120-0000,대구광역시청,2018-08-09,6270000,대구광역시,
가일미술관,사립,경기도 가평군 청평면 북한강로 1549,경기도 가평군 청평면 삼회리 609-6,37.6600185,127.3793615,031-584-4722,가일미술관,www.gailart.org,"주차장(100대), 사진촬영허가",10:00,19:00,10:00,18:00,"매주 월요일, 설날, 추석",3000,2500,2500,"7세미만 어린이, 국가유공자 및 장애인 무료 20인이상 2000원","시각예술을 바탕으로 다양한 국내외 작가들의 기획전시와 함께 예술교육이 이루어지며, 매달 정기공연을 통해 지역사회의 문화공간역할을 담당하고 있다.",서종IC-청평방향으로 우회전 5분거리,031-584-4722,가일미술관,2018-08-14,4160000,경기도 가평군,
남송미술관,사립,경기도 가평군 북면 백둔로 322,경기도 가평군 북면 백둔리 198-9,37.9043998,127.4719645,031-581-0772,남송미술관,www.namsongart.com,"주차장(10대), 장애인시설(승강기)",10:00,18:00,10:00,18:00,"매주 월요일, 설날, 추석",3000,2000,2000,"4세미만 어린이, 국가유공자 및 장애인,경로우대증 소유자 무료 성인 20명 단체 2000원 학생 10명 단체 1000원","가평 전원의 아름다운 풍경과 현대 미술의 세계가 만나 다양한 문화와 예술을 감상할 수 있는 가평의 대표적인 문화 예술 전시 공간이다. 설립자 남궁원 작가의 풍부한 작품과 그간 수집해 왔던 미술품을 기반으로 가평지역의 미술문화 발전을 위해 다양한 예술품들을 전시하여 감상, 체험과 교육의 기회를 제공한다.","버스:33-1,33-8,33-4,50-1,50-3",031-581-0772,남송미술관,2018-08-14,4160000,경기도 가평군,
설미재미술관,사립,경기도 가평군 설악면 유명로 1454-38,경기도 가평군 설악면 신천리 721-15,37.6607799,127.4820605,031-585-6276,설미재미술관,www.artsm.kr,"주차장(20대), 사진촬영허가",10:00,17:00,10:00,17:00,매주 월요일,3000,2500,2500,"7세미만 어린이, 국가유공자 및 장애인, 매월 마지막 수요일 무료",비전 있는 젊은 작가를 육성하여 작가 공동체를 활성화 하고 아울러 전문적인 미술교육 체험 프로그램을 개발하여 지역 사회 학생들에게 창의적 미술교육을 실행,"버스:6-10,32-11,32-14",031-585-6276,설미재미술관,2018-08-14,4160000,경기도 가평군,
일지미술관,사립,경기도 가평군 조종면 운악청계로 140,경기도 가평군 조종면 현리 49-3,37.8327807,127.3452777,031-585-0180,일지미술관,없음,"주차장(20대), 사진촬영허가",09:00,19:00,10:00,18:00,무휴,0,0,0,0,대도시와 산간 농촌의 중간층인 가평의 예술적 특징과 이질적인 분위기의 주민구조를 문화로 해소하고자하는 전시,"버스:31-9,31-2",031-585-0180,일지미술관,2018-08-14,4160000,경기도 가평군,
남해유배문학관,공립,경상남도 남해군 남해읍 남해대로 2745,경상남도 남해군 남변리 555,34.831930,127.899138,055-860-8626,남해군청,http://tour.namhae.go.kr,"야외공원, 주차장, 화장실, 물품보관소",09:00,18:00,09:00,18:00,"매주 월요일(단 월요일이 공휴일인 경우 당일은 개관하고 그 다음날 휴관), 설날 및 추석 명절 당일",2000,1500,1000,"단체할인, 65세 이상 무료, 장애우 무료, 군민 무료",국내 최대 문학관으로 최초로 유배객과 문학에 관한 전시공간,남변사거리 로타리 앞,055-860-8626,남해군 문화관광과,2018-07-31,5430000,경상남도 남해군,
보물섬마늘나라,공립,경상남도 남해군 이동면 남해대로 2443,경상남도 남해군 이동면 다정리 906번지,34.817123,127.924634,055-860-3986,남해군 농업기술센터,없음,"제 1·2전시실, 영상정보실, 세미나실, 중앙정원, 마늘 명품관",09:00,18:00,09:00,18:00,"매주 월요일(단, 1월1일, 명절 당일/설, 추석 휴관)",0,0,0,,"보물섬 마늘나라 마늘에 관한 학술적인 연구 자료 수집·활용, 품질향상을 위한 실증시범과 체계적인 마늘연구를 통해 보물섬 남해마늘의 우수성 홍보","대중교통(군내 버스이용), 자가용 이용 가능",055-860-3943,남해군 농업기술센터,2018-07-31,5430000,경상남도 남해군,
덕포진교육박물관,사립,경기도 김포시 대곶면 덕포진로103번길 90,경기도 김포시 대곶면 신안리 224-4번지,37.6506247,126.5387635,031-989-8580,덕포진교육박물관,http://www.덕포진교육박물관.kr/,,09:00,18:00,09:00,18:00,-,2500,2000,1500,단체 20 할인,"덕포진전시관에는 중포와 소포의 실물을 보실 수 있으며, 덕포진 포대 전시상황 및 포대모형도 재현되어 있다. 그 밖에 조선전서나 손돌의 전설 전자북·우저서원·홀기등의 유물과 통일신라시대(단경호, 양이부소호), 조선시대(백자동자상, 백자표형병, 백자대접, 백자장군)의 유물들과 수안산성·동성산에서 출토된 기와·청동제말·석기·석총·니탄층 등이 전시되어 있으며, 덕포진 포대 발굴현황에 대한 영상실이 설치되어 있다.",48번 국도(김포/강화방면) → 누산사거리에서 352번 도로 → 대명항 방면으로 좌회전 → 대명항을 약 1Km정도 남겨두고 우측,031-980-2965,김포도시공사,2018-02-23,4090000,경기도 김포시,
보름산미술관,사립,경기도 김포시 고촌읍 수기로 100-78,경기도 김포시 신곡리 893-1,37.5961949,126.760857,031-985-0005,보름산미술관,http://www.boroomsan.com,카페,10:00,17:00,13:00,17:00,매주 월요일,0,0,0,무료,고촌 보름산 자락에 자리잡은 지역문화 공간,김포 고촌버스정류장 하차 후 도보 15분,031-985-0005,보름산미술관,2018-02-23,4090000,경기도 김포시,
CICA미술관,사립,경기도 김포시 양촌읍 삼도로 196-30,경기도 김포시 학운리 1556,37.6081905,126.5978384,031-988-6363,CICA미술관,http://cicamuseum.com,카페,10:30,17:00,10:30,17:00,"매주 월, 화요일",5000,5000,3000,김포시민 3000원,양촌읍 학운산단에 위치한 문화공간으로 실험적인 아티스트들의 연구 공간이자 누구나 쉽게 현대미술을 접하고 생활 전반에 응용할 수 있는 열린 공간,올림픽대로 ‘한강신도시 IC’에서 약 30분 거리,031-988-6363,CICA미술관,2018-02-23,4090000,경기도 김포시,
다도박물관,사립,경기도 김포시 월곶면 애기봉로275번길 187-51,경기도 김포시 개곡리 830-1,37.7377831,126.5744552,031-998-1000,다도박물관,http://tour.gimpo.go.kr/culture/content.do?menu_cd=101686,-,10:00,17:00,10:00,17:00,매주 월요일,5000,4000,3000,"할인가: 지역주민(김포관내) : 단체요금적용(신분증 또는 증빙서류지참) 장애인(1~6급) : 50(동반1인포함, 증빙서류 지참) 문화의 날(매월 마지막주 수요일) : 개인입장객 50 적용 군인 : 50( 증빙서류 지참) 무료: 36개월미만 : 무료 (부모 동반시적용, 단체는 적용제외) 국가유공자 :무료 (본인무료/증빙자료지참)","다도전시관, 연못, 정자, 보트, 투호, 야외결혼식장, 잔디광장, 박물관문화대학 운영, 다도예절 강습과 연꽃차 시음",자가이용 : 김포국제조각공원에서 애기봉으로 가는 길의 중간쯤 위치,031-998-1000,다도박물관,2018-02-23,4090000,경기도 김포시,
CICA미술관,사립,경기도 김포시 삼도로 196-30,경기도 김포시 양촌읍 학운리 1556번지,37.6081001,126.597738,031-988-6363,CICA미술관,http://www.cicamuseum.com,,10:00,18:00,10:00,18:00,월,5000,0,0,,,,031-980-2488,경기도 김포시청,2018-02-23,4090000,경기도 김포시,
보름산미술관,사립,경기도 김포시 수기로 100-78,경기도 김포시 고촌읍 신곡리 893-1번지,37.596163,126.760913,031-985-0005,보름산미술관,http://www.boroomsan.com/,,10:00,18:00,10:00,18:00,월,0,0,0,,,,031-980-2488,경기도 김포시청,2018-02-23,4090000,경기도 김포시,
외할머니의 부엌,사립,경기도 김포시 덕포진로 103번길 95-7,경기도 김포시 대곶면 신안리 222번지,37.649977,126.538958,031-984-1993,외할머니의 부엌,블로그  외할머니의 부엌,,10:00,18:00,10:00,18:00,월,2000,1000,1000,,,,031-980-2488,경기도 김포시청,2018-02-23,4090000,경기도 김포시,
김포다도박물관,사립,경기도 김포시 애기봉로 275번길 187-49,경기도 김포시 월곶면 개곡리 832번지,37.737557,126.574376,031-998-1000,김포다도박물관,cafe.daum.net/iyemyung,,10:00,18:00,10:00,18:00,월,5000,3000,3000,,,,031-980-2488,경기도 김포시청,2018-02-23,4090000,경기도 김포시,
덕포진교육박물관,사립,경기도 김포시 덕포진로 103번길 90,경기도 김포시 대곶면 신안리 232-1번지,37.650616,126.538711,031-989-8580,덕포진교육박물관,www.덕포진교육박물관.kr,,10:00,18:00,10:00,18:00,월,3000,2000,1500,,,,031-980-2488,경기도 김포시청,2018-02-23,4090000,경기도 김포시,
청주고인쇄박물관,공립,충청북도 청주시 흥덕구 직지대로 713,충청북도 청주시 흥덕구 운천동 866,36.383846,127.281754,043-201-4262,청주고인쇄박물관,jikjiworld.cheongju.go.kr,"기념품 판매점, 간이휴게소(3개)",09:00,18:00,09:00,18:00,"매주월요일, 1월1일, 설날, 추석",0,0,0,,"청주 고인쇄 박물관은 세계에서 가장 오래 된 금속 활자본 ''''직지''''를 인쇄한 청주 흥덕사의 옛 터에 있으며, 1992년 3월 17일에 개관한 고인쇄 전문 박물관","시내버스 831, 831-1",043-201-4262,청주고인쇄박물관,2018-08-16,5710000,충청북도 청주시,
청주시립미술관,공립,충청북도 청주시 서원구 충렬로18번길 50,,36.634679,127.476215,043-201-2650,청주시립미술관,www.cmoa.or.kr,"카페테리아,물품보관소",10:00,19:00,10:00,19:00,"매주 월요일 (단, 월요일이 공휴일인 경우 당일은 개관하고 그 다음 첫번째 평일에 휴관)",1000,0,0,청주주민등록자는 50퍼센트 할인,,,043-201-2641,청주시립미술관,2018-08-16,5710000,충청북도 청주시,
여수민속전시관,공립,전라남도 여수시 율촌면 서부로 1442,전라남도 여수시 율촌면 가장리 830번지,34.846393,127.556089,061-683-2231,여수민속전시관,http://yfg.modoo.at,주차장+야외벤치,09:00,18:00,09:00,18:00,"1월1일, 매주 월요일",0,0,0,0,여수의 향토사와 전통문화를 한 눈에 볼 수 있는 여수민속전시관,버스 : 31,061-659-4753,전라남도 여수시청,2018-05-08,4810000,전라남도 여수시,
아쿠아플라넷여수,사립,전라남도 여수시 오동도로 61-11,전라남도 여수시 수정동 774-1,34.746408,127.748355,061-660-1111,한화호텔&리조트㈜,http://www.aquaplanet.co.kr,푸드코드+까페+기프트샵+수유실+주차장 등,10:00,19:00,10:00,19:00,연중무휴,23000,21000,19000,"36개월미만무료, 만65세이상 21,000원, 장애인 할인(동반1인까지), 여수시민 할인",세계의 바다를 담은 아쿠아플라넷 여수,버스 : 2,061-660-1111,한화호텔&리조트㈜,2018-05-08,4810000,전라남도 여수시,
서대문자연사박물관(3월~10월),공립,서울특별시 서대문구 연희로 32길 51,서울특별시 서대문구 연희동 산5-58,37.578662,126.937836,02-330-8899,서대문자연사박물관,https://namu.sdm.go.kr,"나무홀, 수유실, 카페, 스낵바, 야외쉼터, 뮤지엄샵",09:00,18:00,09:00,19:00,"매주 월요일, 1월1일, 설날, 추석 당일 단, 월요일이 공휴일인경우 다음날 휴관일",6000,3000,2000,"1. 무료: 6세이하, 65세 이상, 장애인 및 국가유공자 (장애인 수첩 및 국가유공자증 소지자)에 한함,  2. 50퍼센트 할인: 서대문거주주민(신분증 소지자 한함), 관내학교(초,중,고) 3. 단, 중복할인 불가 4. 20퍼센트 할인: 서대문자연사박물관 입장권 소지자(단, 개인관람객에 한함)",서대문자연사박물관은 살아있는 인성교육의 공간으로써 우리나라 최초의 학교나 개인이 아닌 지방자치단체에서 직접 계획하고 만든 자연사박물관 입니다.,"[지하철] 신촌역(2호선) : 3,4출구로 나와 서대문03마을버스 탑승 후 서대문자연사박물관 하차, 홍제역(3호선) : 3번출구(무악재방향), 4번출구(홍은사거리방향)로 나와 7738 탑승 후 서대문자연사박물관 하차 [버스]  110A, 153(간선버스), 7017, 7720, 7738(지선버스), 자가용 : 홈페이지 참고",02-330-8899,서울특별시 서대문구청,2018-08-07,3120000,서울특별시 서대문구,
서대문자연사박물관(11월~2월),공립,서울특별시 서대문구 연희로 32길 51,서울특별시 서대문구 연희동 산5-58,37.578662,126.937836,02-330-8899,서대문자연사박물관,https://namu.sdm.go.kr,"나무홀, 수유실, 카페, 스낵바, 야외쉼터, 뮤지엄샵",09:00,17:00,09:00,18:00,"매주 월요일, 1월1일, 설날, 추석 당일 단, 월요일이 공휴일인경우 다음날 휴관일",6000,3000,2000,"1. 무료: 6세이하, 65세 이상, 장애인 및 국가유공자 (장애인 수첩 및 국가유공자증 소지자)에 한함,  2. 50퍼센트 할인: 서대문거주주민(신분증 소지자 한함), 관내학교(초,중,고) 3. 단, 중복할인 불가 4. 20퍼센트 할인: 서대문자연사박물관 입장권 소지자(단, 개인관람객에 한함)",서대문자연사박물관은 살아있는 인성교육의 공간으로써 우리나라 최초의 학교나 개인이 아닌 지방자치단체에서 직접 계획하고 만든 자연사박물관 입니다.,"[지하철] 신촌역(2호선) : 3,4출구로 나와 서대문03마을버스 탑승 후 서대문자연사박물관 하차, 홍제역(3호선) : 3번출구(무악재방향), 4번출구(홍은사거리방향)로 나와 7738 탑승 후 서대문자연사박물관 하차 [버스]  110A, 153(간선버스), 7017, 7720, 7738(지선버스), 자가용 : 홈페이지 참고",02-330-8899,서울특별시 서대문구청,2018-08-07,3120000,서울특별시 서대문구,
서대문형무소역사관(3월~10월),공립,서울특별시 서대문구 통일로 251,서울특별시 서대문구 현저동 101,37.576204,126.955574,02-360-8585,서울특별시 서대문구 도시관리공단,http://www.sscmc.or.kr/newhistory/index_culture.asp,"고객 해설 안내용 이어폰 수동휠체어 전동휠체어 돋보기 보청기 장애인화장실 응급구호장비(구급약품, 자동제세동기, 산소호흡기, 방독면, 들것)",09:30,18:00,09:30,18:00,"신정, 설날, 추석날, 매주월요일(월요일이 공휴일인 경우 다음날 휴관)",3000,1500,1000,"1. 무료: 6세이하, 65세 이상, 장애인 및 국가유공자 (장애인 수첩 및 국가유공자증 소지자)에 한함,  2. 50퍼센트 할인: 서대문거주주민(신분증 소지자 한함), 관내학교(초,중,고) 3. 단, 중복할인 불가 4.20퍼센트 할인: 서대문자연사박물관 입장권 소지자(단, 개인관람객에 한함)","자주독립정신과 자유, 평화수호 정신을 기리는 교육의 현장으로 운영되고 있습니다.","지하철3호선 독립문역 5번 출구(독립공원 방향, 1분 소요),  버스: 현저동 또는 독립문정류장에서 하차간선버스(파랑) : 471, 701, 702, 703, 704, 720, 752 지선버스(초록) : 7019, 7021, 7025, 7737광역버스(빨강) : 9701, 9703, 9709, 9710마을버스 : 서대문02",02-330-1130,서울특별시 서대문구청,2018-08-07,3120000,서울특별시 서대문구,
서대문형무소역사관(11월~12월),공립,서울특별시 서대문구 통일로 251,서울특별시 서대문구 현저동 101,37.576204,126.955574,02-360-8585,서울특별시 서대문구 도시관리공단,http://www.sscmc.or.kr/newhistory/index_culture.asp,"고객 해설 안내용 이어폰 수동휠체어 전동휠체어 돋보기 보청기 장애인화장실 응급구호장비(구급약품, 자동제세동기, 산소호흡기, 방독면, 들것)",09:30,17:00,09:30,17:00,"신정, 설날, 추석날, 매주월요일(월요일이 공휴일인 경우 다음날 휴관)",3000,1500,1000,"1. 무료: 6세이하, 65세 이상, 장애인 및 국가유공자 (장애인 수첩 및 국가유공자증 소지자)에 한함,  2. 50퍼센트 할인: 서대문거주주민(신분증 소지자 한함), 관내학교(초,중,고) 3. 단, 중복할인 불가 4.20퍼센트 할인: 서대문자연사박물관 입장권 소지자(단, 개인관람객에 한함)","자주독립정신과 자유, 평화수호 정신을 기리는 교육의 현장으로 운영되고 있습니다.","지하철3호선 독립문역 5번 출구(독립공원 방향, 1분 소요),  버스: 현저동 또는 독립문정류장에서 하차간선버스(파랑) : 471, 701, 702, 703, 704, 720, 752 지선버스(초록) : 7019, 7021, 7025, 7737광역버스(빨강) : 9701, 9703, 9709, 9710마을버스 : 서대문02",02-330-1130,서울특별시 서대문구청,2018-08-07,3120000,서울특별시 서대문구,
산청한의학박물관,공립,경상남도 산청군 금서면 동의보감로555번길 45-6,경상남도 산청군 금서면 특리 1300,35.441508,127.830578,055-970-6623,산청군청 한방항노화실,http://donguibogam-village.sancheong.go.kr/,"수유실, 장애인화장실",09:00,18:00,09:00,18:00,"1월1일, 설당일, 추석당일, 매주월요일",2000,15000,1000,"산청군거주자, 만6세이하 어린이, 만65세이상 노인, 장애인 1~3급(보호자1인 포함), 국가유공자(배우자 1인 포함), 독립유공자, 참전유공자, 고엽제 후유의증환자, 국민기초생활수급자, 선관위발급 투표확인증 소지자, 한부모가족",전국최초 지방자치단체 한의학전문박물관,산청읍-화계간 버스이용,055-970-6623,경상남도 산청군청,2018-02-23,5450000,경상남도 산청군,
산청박물관,공립,경상남도 산청군 생초면 산수로 1064,경상남도 산청군 생초면 어서리 772,35.4914462,127.8312211,070-8990-2133,산청군청 문화관광과,,,09:00,18:00,09:00,18:00,매주월요일,0,0,0,무료,,산청읍-생초간 버스이용,055-970-6444,경상남도 산청군청,2018-02-23,5450000,경상남도 산청군,
한국족보박물관,공립,대전광역시 중구 뿌리공원로 79(침산동),대전광역시 중구 침산동 364,36.285708,127.388397,042-582-4445,대전광역시 중구 효문화마을관리원,http://hyo.djjunggu.go.kr/html/hyo/museum/museum_040501.html,"휠체어, 유모차, 모유수유실, 매점",10:00,17:00,10:00,17:00,"매주 월요일, 설·추석 당일",0,0,0,해당없음,,http://www.djjunggu.go.kr/html/hyo/intro/intro_0105.html,042-582-4445,대전광역시 중구 효문화마을관리원,2018-07-25,3650000,대전광역시 중구,
63아트,사립,서울특별시 영등포구 63로 50,서울특별시 영등포구 여의도동 60,37.520616,126.939977,02-789-5663,㈜한화,http://www.63skyart.co.kr/,"수유실,화장실",10:00,22:00,10:00,22:00,연중무휴,13000,12000,11000,"경로 11,000","63빌딩 지하 3층에 위치한 63왁스뮤지엄은 대한민국 최초 살아있는 밀랍인형들이 전시된 곳이다.(2009년 7월 3일 개관) 총 11개의 섹션으로 나뉘어 70여 개의 밀랍인형을 볼 수 있는 63왁스뮤지엄은 김구,박정희, 김대중 등 역대 대한민국 지도자들을 만날 수 있는 명예의 전당, 아인슈타인 등 역사 속의 인물 달리, 고흐, 피카소의 화가의 방, 베컴, 타이거우즈 등의 스포츠스타, 공포체험관, 애니메이션 zone 등 으로 구성되어 있다. 아시아 최고이 밀랍인형 작가 마쓰자키 사토루 등 해외 유명 작가의 작품으로 구성되어 있다.","1호선 대방역 6번출구 여의도 방향 40M 지점 무료 셔틀버스 이용, 6번출구 앞 여의도 마을버스 11번 이용, 5호선 여의나루역 4번출구 MBC방향 80M지점 무료셔틀버스 이용, 1번출구 앞 시내버스 5534번,5633번, 261번 이용 5호선 여의도역 5번출구 성모병원 버스승차장 앞 무료셔틀버스 이용, 5번출구 앞 여의도 마을1호선 대방역 6번출구 여의도 방향 40M 지점 무료 셔틀버스 이용, 6번출구 앞 여의도 마을버스 11번 이용, 5호선 여의나루역 4번출구 MBC방향 80M지점 무료셔틀버스 이용, 1번출구 앞 시내버스 5534번,5633번, 261번 이용 5호선 여의도역 5번출구 성모병원 버스승차장 앞 무료셔틀버스 이용, 5번출구 앞 여의도 마을버스 11번이용",02-789-5663,㈜한화,2018-02-20,3180000,서울특별시 영등포구,
63아쿠아플라넷,사립,서울특별시 영등포구 63로 50,서울특별시 영등포구 여의도동 60,37.520616,126.939977,02-789-5663,㈜한화,http://www.63.co.kr/home/63CITY/seaworld/intro.do,"수유실, 화장실",10:00,22:00,10:00,22:00,연중무휴,25000,23000,21000,"경로 21,000","400여종 약 2만 마리의 다양한 해양생물을 54개 수조와 특수 사육용 수조 26개에 나누어 전시한 대규모 실내 수족관으로 산호초, 바다표범, 펭귄, 물개, 돌고래, 2m가 넘는 키다리 게, 3억5천만년전의 신비를 간직한 고대어류 실라칸스를 볼수 있다. 지하1층, 2층으로 2개층을 통해서 관람을 할 수 있고, 수중싱크로나이즈쇼는 전문적인 국가대표 싱크로나이즈 선수가 상어와 갖가지 물고기가 있는 대형 수족관안에서 자유로이 회전과 묘기를 펼치는 장관을 연출하고, 닥터피쉬체험과 도마뱀, 아나콘다 등의 생물도 관광객을 기다리고 있다. 물개쇼, 바다표범쇼, 바다공주쇼, 펭귄피딩쇼, 수중싱크로나이즈쇼를 공연시간에 맞춰서 진행을 하기 때문에 출발하기 전에 보고 싶은 쇼진행 시간에 맞춰서 가면 놓치지 않고 볼 수 있다.","1호선 대방역 6번출구 여의도 방향 40M 지점 무료 셔틀버스 이용, 6번출구 앞 여의도 마을버스 11번 이용, 5호선 여의나루역 4번출구 MBC방향 80M지점 무료셔틀버스 이용, 1번출구 앞 시내버스 5534번,5633번, 261번 이용 5호선 여의도역 5번출구 성모병원 버스승차장 앞 무료셔틀버스 이용, 5번출구 앞 여의도 마을1호선 대방역 6번출구 여의도 방향 40M 지점 무료 셔틀버스 이용, 6번출구 앞 여의도 마을버스 11번 이용, 5호선 여의나루역 4번출구 MBC방향 80M지점 무료셔틀버스 이용, 1번출구 앞 시내버스 5534번,5633번, 261번 이용 5호선 여의도역 5번출구 성모병원 버스승차장 앞 무료셔틀버스 이용, 5번출구 앞 여의도 마을버스 11번이용",02-789-5663,㈜한화,2018-02-20,3180000,서울특별시 영등포구,
한국잡지박물관,사립,서울특별시 영등포구 여의대방로 67길 11,서울특별시 영등포구 여의도동 44-31,37.519617,126.930424,02-360-0041,(사)한국잡지협회,http://www.magazine.or.kr,화장실,10:00,18:00,00:00,00:00,"일요일, 공휴일, 토요일은 14:00까지 운영",0,0,0,0,"한국잡지정보관은 (사)한국잡지협회가 한국잡지 100년을 기념해서 우리민족의 발자취와 세대의 흐름을 잡지 속에서 찾고자 1992년 12월 1일 개관했다. 잡지인들의 투철한 사명감과 불굴의 정신을 계승 발전시키고, 소멸되어가는 희귀하고도 역사적 가치가 높은 잡지 및 자료들을 수집, 전시하고 전문적 학술적 연구를 통해 우리 잡지를 이해하고 발전시키기 위해 잡지정보관을 만들게 되었다","여의도역 5번 출구로 나와 직진 50m, 여의도우체국과 증권거래소 사잇길로 도보로 10분정도 직진, kbs별관 후문 4거리에서 좌측으로 조흥은행 끼고 좌회전, 맞은편 잡지회관 지하1층에 위치",02-360-0041,(사)한국잡지협회,2018-02-20,3180000,서울특별시 영등포구,
증도갯벌생태전시관,공립,전라남도 신안군 증도면 지도증도로 1766-4,전라남도 신안군 증도면 지도증도로 1766-4,34.964945,126.136929,061-275-8400,신안군,https://www.shinan.go.kr/home/www/about/experience_center/experience_center_02/page.wscmsnone,카페,10:00,18:00,10:00,18:00,월요일휴관,0,0,0,0,"갯벌생태,수석전시",,061-240-8358,신안군,2018-08-01,5010000,전라남도 신안군,
하의3도농민운동기념관,공립,전라남도 신안군 하의면 대리 35-9,전라남도 신안군 하의면 대리 35-9,34.616463,126.028340,061-240-8865,신안군,https://www.shinan.go.kr/home/www/about/experience_center/experience_center_05/page.wscms,,10:00,18:00,10:00,18:00,월요일휴관,0,0,0,0,300년 역사 농민항쟁운동,,061-240-3812,신안군,2018-08-02,5010000,전라남도 신안군,
증도소금박물관,사립,전라남도 신안군 증도면 지도증도로 1058,전라남도 신안군 증도면 지도증도로 1058,34.996510,126.175550,061-275-0829,태평염전,www.salatmuseum.or.kr,,10:00,18:00,10:00,18:00,월요일휴관,0,0,0,0,"염전체험,소금체험",,061-275-0829,태평염전,2018-08-03,5010000,전라남도 신안군,
저녁노을미술관,공립,전라남도 신안군 압해읍 수락길 350,전라남도 신안군 압해읍 수락길 350,34.843801,126.253046,061-271-1145,신안군,http://shinan-bjpark.or.kr/,북카페,09:00,18:00,09:00,18:00,월요일휴관,3000,1000,500,3000,우암 박용규 화백 상설전시,,061-240-8778,신안군,2018-08-04,5010000,전라남도 신안군,
박득순미술관,사립,전라남도 신안군 흑산면 진마을길 53,전라남도 신안군 흑산면 진마을길 53,34.683654,125.423370,02-502-4646,사립,https://blog.naver.com/parkdeuksun,,10:00,18:00,10:00,18:00,월요일휴관,0,0,0,0,사립미술관,,02-502-4646,사립,2018-08-05,5010000,전라남도 신안군,
의병박물관,공립,경상남도 의령군 의령읍 충익로 1-25,경상남도 의령군 의령읍 중동리 482,35.3148157,128.2596043,055-570-2345,의병박물관,http://www.uiryeong.go.kr/tour/index.uiryeong?menuCd=DOM_000000506004000000,,09:00,17:30,09:00,17:30,"매년 1월 1일과 매주 월요일(단, 월요일이 「관공서의 공휴일에 관한 규정」제2조에 따른 공휴일일 때에는 월요일 다음의 첫 번째 평일)",0,0,0,무료,의병박물관은 기존의 의령군민문화회관 내에 위치하고 있던 의령박물관을 충익사 기념관(보물 제671호 곽재우 유물 일관 등 의병 관련 유물)과 합관하여 의령읍 충익로 1-25번지에 신축하면서 의병박물관으로 명칭 변경하였으면 2012년 6월1일 개관하였다.,버스: 의령우체국 정류장(도보: 9분),055-570-2400,경상남도 의령군청,2018-08-21,5390000,경상남도 의령군,
록봉민속교육박물관,사립,부산광역시 강서구 가덕해안로 741,부산광역시 강서구 천성동 813,35.0315306269,128.813584709,051-892-5997,록봉민속교육박물관,www.rogbong.com,,10:00,17:00,10:00,17:00,없음,5000,5000,5000,,민속자료 관람 등,,051-892-5997,록봉민속교육박물관,2018-10-05,3360000,부산광역시 강서구,
옥천향토전시관,공립,충청북도 옥천군 안내면 장계1길 57,충청북도 옥천군 안내면 장계리 산7-1,36.377428,127.634977,043-730-3417,옥천군청,,주차장,09:00,18:00,09:00,18:00,"1월1일, 설날, 추석날, 매주 월요일",0,0,0,0,옥천군 향토유적 자료를 모아놓은 박물관,,043-730-3417,옥천군,2018-08-20,4430000,충청북도 옥천군,
가산박물관,사립,충청북도 옥천군 안내회남로 310-5,충청북도 옥천군 안내면 용촌리 221,36.404813,127.622194,043-733-9129,가산박물관,,주차장,09:00,18:00,09:00,18:00,연중무휴,0,0,0,0,고서 중심으로 테마별 관련자료 전시,,043-733-9129,가산박물관,2018-08-20,4430000,충청북도 옥천군,
